<?xml version="1.0" encoding="UTF-8"?>
<!-- written by WED 2.2.0r2 -->
<doc>
  <objects>
    <object class="WED_FacadeNode" id="1008" parent_id="1007">
      <children/>
      <hierarchy name="Point" locked="0" hidden="0"/>
      <point latitude="11.116816304" longitude="-74.232335704" split="0" ctrl_latitude_lo="0.0" ctrl_longitude_lo="0.0" ctrl_latitude_hi="0.0" ctrl_longitude_hi="0.0"/>
      <facade_node wall_type="Wall 1"/>
    </object>
    <object class="WED_AirportNode" id="65" parent_id="55">
      <children/>
      <hierarchy name="unnamed entity" locked="0" hidden="0"/>
      <point latitude="11.120787360" longitude="-74.231352760" split="0" ctrl_latitude_lo="0.0" ctrl_longitude_lo="0.0" ctrl_latitude_hi="0.0" ctrl_longitude_hi="0.0"/>
      <markings/>
    </object>
    <object class="WED_FacadeNode" id="944" parent_id="941">
      <children/>
      <hierarchy name="Point" locked="0" hidden="0"/>
      <point latitude="11.118215287" longitude="-74.232488859" split="0" ctrl_latitude_lo="0.0" ctrl_longitude_lo="0.0" ctrl_latitude_hi="0.0" ctrl_longitude_hi="0.0"/>
      <facade_node wall_type="Wall 1"/>
    </object>
    <object class="WED_Root" id="1" parent_id="0">
      <children>
        <child id="2"/>
        <child id="3"/>
        <child id="4"/>
      </children>
      <hierarchy name="root"/>
    </object>
    <object class="WED_FacadePlacement" id="952" parent_id="814">
      <children>
        <child id="953"/>
      </children>
      <hierarchy name="term_bridge_01.fac" locked="0" hidden="0"/>
      <facade_placement height="10" resource="lib/airport/Modern_Airports/Terminal_kit/term_bridge_01.fac" pick_walls="1" show_level="1 Default"/>
    </object>
    <object class="WED_Group" id="9" parent_id="5">
      <children>
        <child id="211"/>
        <child id="219"/>
        <child id="226"/>
        <child id="234"/>
        <child id="245"/>
        <child id="255"/>
        <child id="265"/>
        <child id="274"/>
        <child id="277"/>
        <child id="280"/>
        <child id="283"/>
        <child id="286"/>
        <child id="289"/>
        <child id="293"/>
        <child id="299"/>
        <child id="304"/>
        <child id="329"/>
        <child id="335"/>
        <child id="345"/>
        <child id="370"/>
        <child id="393"/>
        <child id="396"/>
        <child id="400"/>
        <child id="412"/>
        <child id="416"/>
        <child id="420"/>
        <child id="2086"/>
        <child id="424"/>
        <child id="427"/>
        <child id="430"/>
        <child id="433"/>
        <child id="436"/>
        <child id="439"/>
        <child id="454"/>
        <child id="464"/>
        <child id="467"/>
        <child id="476"/>
        <child id="485"/>
        <child id="494"/>
        <child id="503"/>
      </children>
      <hierarchy name="Markings" locked="0" hidden="0"/>
    </object>
    <object class="WED_Select" id="2" parent_id="1">
      <children/>
      <hierarchy name="selection"/>
      <selection/>
    </object>
    <object class="WED_AirportChain" id="393" parent_id="9">
      <children>
        <child id="394"/>
        <child id="395"/>
      </children>
      <hierarchy name="Linear Feature 36" locked="0" hidden="0"/>
      <airport_chain closed="0"/>
    </object>
    <object class="WED_FacadeNode" id="1054" parent_id="1044">
      <children/>
      <hierarchy name="Point" locked="0" hidden="0"/>
      <point latitude="11.112890292" longitude="-74.231155480" split="0" ctrl_latitude_lo="0.0" ctrl_longitude_lo="0.0" ctrl_latitude_hi="0.0" ctrl_longitude_hi="0.0"/>
      <facade_node wall_type="Wall 1"/>
    </object>
    <object class="WED_KeyObjects" id="3" parent_id="1">
      <children/>
      <hierarchy name="choices"/>
      <keys>
        <key name="airport" id="5"/>
      </keys>
    </object>
    <object class="WED_AirportNode" id="387" parent_id="370">
      <children/>
      <hierarchy name="unnamed entity" locked="0" hidden="0"/>
      <point latitude="11.116761990" longitude="-74.231925670" split="0" ctrl_latitude_lo="0.0" ctrl_longitude_lo="0.0" ctrl_latitude_hi="0.0" ctrl_longitude_hi="0.0"/>
      <markings>
        <marking value="Solid White (Roadway)"/>
      </markings>
    </object>
    <object class="WED_SimpleBoundaryNode" id="1463" parent_id="1451">
      <children/>
      <hierarchy name="Node 11" locked="0" hidden="0"/>
      <point latitude="11.116237911" longitude="-74.231919468"/>
    </object>
    <object class="WED_Group" id="4" parent_id="1">
      <children>
        <child id="2297"/>
        <child id="2296"/>
        <child id="2295"/>
        <child id="2294"/>
        <child id="2291"/>
        <child id="2288"/>
        <child id="2286"/>
        <child id="2281"/>
        <child id="2273"/>
        <child id="2266"/>
        <child id="2254"/>
        <child id="2242"/>
        <child id="2224"/>
        <child id="2209"/>
        <child id="2183"/>
        <child id="2175"/>
        <child id="2173"/>
        <child id="2171"/>
        <child id="2170"/>
        <child id="2165"/>
        <child id="2146"/>
        <child id="2057"/>
        <child id="2047"/>
        <child id="2046"/>
        <child id="2045"/>
        <child id="2044"/>
        <child id="2054"/>
        <child id="2053"/>
        <child id="2052"/>
        <child id="2051"/>
        <child id="2050"/>
        <child id="2049"/>
        <child id="2048"/>
        <child id="2043"/>
        <child id="2042"/>
        <child id="2035"/>
        <child id="2029"/>
        <child id="2023"/>
        <child id="2017"/>
        <child id="2041"/>
        <child id="2040"/>
        <child id="2039"/>
        <child id="2010"/>
        <child id="2009"/>
        <child id="1979"/>
        <child id="1961"/>
        <child id="1914"/>
        <child id="1910"/>
        <child id="1909"/>
        <child id="1908"/>
        <child id="1907"/>
        <child id="1906"/>
        <child id="1905"/>
        <child id="1893"/>
        <child id="1891"/>
        <child id="1890"/>
        <child id="1889"/>
        <child id="1888"/>
        <child id="1887"/>
        <child id="1886"/>
        <child id="1885"/>
        <child id="1884"/>
        <child id="1883"/>
        <child id="2056"/>
        <child id="1882"/>
        <child id="1881"/>
        <child id="1880"/>
        <child id="1879"/>
        <child id="1876"/>
        <child id="1870"/>
        <child id="1864"/>
        <child id="1855"/>
        <child id="1854"/>
        <child id="1849"/>
        <child id="1830"/>
        <child id="1794"/>
        <child id="1785"/>
        <child id="1780"/>
        <child id="1779"/>
        <child id="1778"/>
        <child id="1775"/>
        <child id="1774"/>
        <child id="1773"/>
        <child id="1772"/>
        <child id="1771"/>
        <child id="1759"/>
        <child id="1732"/>
        <child id="1731"/>
        <child id="1730"/>
        <child id="1729"/>
        <child id="1728"/>
        <child id="1727"/>
        <child id="1726"/>
        <child id="1725"/>
        <child id="1724"/>
        <child id="1723"/>
        <child id="1722"/>
        <child id="1721"/>
        <child id="1720"/>
        <child id="1719"/>
        <child id="1701"/>
        <child id="1693"/>
        <child id="1692"/>
        <child id="1691"/>
        <child id="1690"/>
        <child id="1689"/>
        <child id="1688"/>
        <child id="1687"/>
        <child id="1686"/>
        <child id="1668"/>
        <child id="1666"/>
        <child id="1665"/>
        <child id="1664"/>
        <child id="1663"/>
        <child id="1662"/>
        <child id="1661"/>
        <child id="1660"/>
        <child id="1659"/>
        <child id="1658"/>
        <child id="1657"/>
        <child id="1656"/>
        <child id="1655"/>
        <child id="1654"/>
        <child id="1653"/>
        <child id="1652"/>
        <child id="1650"/>
        <child id="1649"/>
        <child id="1648"/>
        <child id="1647"/>
        <child id="1646"/>
        <child id="1644"/>
        <child id="1643"/>
        <child id="1639"/>
        <child id="1638"/>
        <child id="1637"/>
        <child id="1636"/>
        <child id="1627"/>
        <child id="1626"/>
        <child id="1621"/>
        <child id="1634"/>
        <child id="1633"/>
        <child id="1632"/>
        <child id="1631"/>
        <child id="1612"/>
        <child id="1610"/>
        <child id="1609"/>
        <child id="1608"/>
        <child id="1607"/>
        <child id="1606"/>
        <child id="1605"/>
        <child id="1604"/>
        <child id="1603"/>
        <child id="1602"/>
        <child id="1601"/>
        <child id="1600"/>
        <child id="1599"/>
        <child id="1597"/>
        <child id="1596"/>
        <child id="1594"/>
        <child id="1576"/>
        <child id="1562"/>
        <child id="1560"/>
        <child id="1559"/>
        <child id="1558"/>
        <child id="1557"/>
        <child id="1556"/>
        <child id="1555"/>
        <child id="1554"/>
        <child id="1553"/>
        <child id="1552"/>
        <child id="1551"/>
        <child id="1550"/>
        <child id="1549"/>
        <child id="1548"/>
        <child id="1547"/>
        <child id="1546"/>
        <child id="1545"/>
        <child id="1544"/>
        <child id="1543"/>
        <child id="1542"/>
        <child id="1541"/>
        <child id="1540"/>
        <child id="1539"/>
        <child id="1538"/>
        <child id="1537"/>
        <child id="1536"/>
        <child id="1535"/>
        <child id="1534"/>
        <child id="1533"/>
        <child id="1532"/>
        <child id="1531"/>
        <child id="1523"/>
        <child id="1516"/>
        <child id="1512"/>
        <child id="1508"/>
        <child id="1500"/>
        <child id="1499"/>
        <child id="1498"/>
        <child id="1497"/>
        <child id="1496"/>
        <child id="1494"/>
        <child id="1493"/>
        <child id="1490"/>
        <child id="1528"/>
        <child id="1480"/>
        <child id="1446"/>
        <child id="1437"/>
        <child id="1417"/>
        <child id="1368"/>
        <child id="1358"/>
        <child id="1350"/>
        <child id="1342"/>
        <child id="2204"/>
        <child id="2198"/>
        <child id="1315"/>
        <child id="1307"/>
        <child id="1306"/>
        <child id="1286"/>
        <child id="2190"/>
        <child id="2185"/>
        <child id="1236"/>
        <child id="1229"/>
        <child id="1226"/>
        <child id="1225"/>
        <child id="1224"/>
        <child id="1223"/>
        <child id="1222"/>
        <child id="1221"/>
        <child id="1196"/>
        <child id="1191"/>
        <child id="1190"/>
        <child id="1189"/>
        <child id="1188"/>
        <child id="1187"/>
        <child id="1186"/>
        <child id="1185"/>
        <child id="1184"/>
        <child id="1183"/>
        <child id="1182"/>
        <child id="1181"/>
        <child id="1180"/>
        <child id="1179"/>
        <child id="1178"/>
        <child id="1177"/>
        <child id="1176"/>
        <child id="1175"/>
        <child id="1174"/>
        <child id="1173"/>
        <child id="1172"/>
        <child id="1171"/>
        <child id="1170"/>
        <child id="1169"/>
        <child id="1168"/>
        <child id="1167"/>
        <child id="1166"/>
        <child id="1165"/>
        <child id="1164"/>
        <child id="1163"/>
        <child id="1162"/>
        <child id="1161"/>
        <child id="1160"/>
        <child id="1159"/>
        <child id="1158"/>
        <child id="1157"/>
        <child id="1156"/>
        <child id="1155"/>
        <child id="1138"/>
        <child id="1132"/>
        <child id="1126"/>
        <child id="1119"/>
        <child id="1118"/>
        <child id="1117"/>
        <child id="1116"/>
        <child id="1111"/>
        <child id="5"/>
      </children>
      <hierarchy name="world" locked="0" hidden="0"/>
    </object>
    <object class="WED_Airport" id="5" parent_id="4">
      <children>
        <child id="2298"/>
        <child id="2154"/>
        <child id="2141"/>
        <child id="2137"/>
        <child id="2134"/>
        <child id="2131"/>
        <child id="2126"/>
        <child id="2123"/>
        <child id="2120"/>
        <child id="2117"/>
        <child id="2113"/>
        <child id="2108"/>
        <child id="2104"/>
        <child id="2099"/>
        <child id="2096"/>
        <child id="2064"/>
        <child id="2061"/>
        <child id="2058"/>
        <child id="2006"/>
        <child id="2003"/>
        <child id="2000"/>
        <child id="1956"/>
        <child id="1953"/>
        <child id="1950"/>
        <child id="1947"/>
        <child id="1938"/>
        <child id="1934"/>
        <child id="1931"/>
        <child id="1928"/>
        <child id="1925"/>
        <child id="1922"/>
        <child id="1915"/>
        <child id="1786"/>
        <child id="1749"/>
        <child id="1746"/>
        <child id="1782"/>
        <child id="1781"/>
        <child id="1784"/>
        <child id="1783"/>
        <child id="1733"/>
        <child id="6"/>
        <child id="7"/>
        <child id="8"/>
        <child id="9"/>
        <child id="10"/>
        <child id="11"/>
        <child id="12"/>
        <child id="13"/>
        <child id="14"/>
        <child id="15"/>
        <child id="16"/>
        <child id="17"/>
        <child id="808"/>
        <child id="814"/>
        <child id="711"/>
        <child id="639"/>
        <child id="682"/>
      </children>
      <hierarchy name="Simón Bolívar" locked="0" hidden="0"/>
      <airport kind="Airport" elevation="6.1" has_atc="1" icao="SKSM" always_flatten="0" drive_on_left="0" scenery_id="67675"/>
      <meta_data>
        <meta_data_entry pair="city,Santa Marta"/>
        <meta_data_entry pair="country,Colombia"/>
        <meta_data_entry pair="datum_lat,11.119688889"/>
        <meta_data_entry pair="datum_lon,-74.230638889"/>
        <meta_data_entry pair="faa_code,"/>
        <meta_data_entry pair="gui_label,3D"/>
        <meta_data_entry pair="iata_code,SMR"/>
        <meta_data_entry pair="icao_code,SKSM"/>
        <meta_data_entry pair="region_code,SK"/>
        <meta_data_entry pair="state,Magdalena Department"/>
        <meta_data_entry pair="transition_alt,18000"/>
        <meta_data_entry pair="transition_level,4500"/>
      </meta_data>
    </object>
    <object class="WED_FacadeNode" id="948" parent_id="947">
      <children/>
      <hierarchy name="Point" locked="0" hidden="0"/>
      <point latitude="11.118256220" longitude="-74.232483489" split="0" ctrl_latitude_lo="0.0" ctrl_longitude_lo="0.0" ctrl_latitude_hi="0.0" ctrl_longitude_hi="0.0"/>
      <facade_node wall_type="Wall 1"/>
    </object>
    <object class="WED_AirportNode" id="397" parent_id="396">
      <children/>
      <hierarchy name="unnamed entity" locked="0" hidden="0"/>
      <point latitude="11.117402524" longitude="-74.231923125" split="0" ctrl_latitude_lo="0.0" ctrl_longitude_lo="0.0" ctrl_latitude_hi="0.0" ctrl_longitude_hi="0.0"/>
      <markings>
        <marking value="Solid Yellow (Black)"/>
      </markings>
    </object>
    <object class="WED_SimpleBoundaryNode" id="1457" parent_id="1451">
      <children/>
      <hierarchy name="Node 5" locked="0" hidden="0"/>
      <point latitude="11.112577013" longitude="-74.231502028"/>
    </object>
    <object class="WED_Group" id="6" parent_id="5">
      <children>
        <child id="531"/>
        <child id="532"/>
        <child id="533"/>
        <child id="534"/>
        <child id="535"/>
        <child id="555"/>
        <child id="559"/>
      </children>
      <hierarchy name="ATC" locked="0" hidden="0"/>
    </object>
    <object class="WED_Group" id="7" parent_id="5">
      <children>
        <child id="536"/>
        <child id="538"/>
        <child id="539"/>
        <child id="540"/>
        <child id="541"/>
        <child id="542"/>
        <child id="544"/>
        <child id="545"/>
        <child id="548"/>
        <child id="549"/>
        <child id="550"/>
        <child id="551"/>
        <child id="552"/>
        <child id="553"/>
        <child id="554"/>
      </children>
      <hierarchy name="Ground Vehicles" locked="0" hidden="0"/>
    </object>
    <object class="WED_Group" id="8" parent_id="5">
      <children>
        <child id="515"/>
        <child id="516"/>
      </children>
      <hierarchy name="Lights" locked="0" hidden="0"/>
    </object>
    <object class="WED_ObjPlacement" id="1126" parent_id="4">
      <children/>
      <hierarchy name="AutoGate-perpendicular-18m-glass.obj" locked="0" hidden="0"/>
      <point latitude="11.118141834" longitude="-74.232286677" heading="-85.91"/>
      <obj_placement custom_msl="0" msl="0.0" resource="Jetways-Glass/AutoGate-perpendicular-18m-glass.obj" show_level="1 Default"/>
    </object>
    <object class="WED_AirportNode" id="401" parent_id="400">
      <children/>
      <hierarchy name="unnamed entity" locked="0" hidden="0"/>
      <point latitude="11.117128390" longitude="-74.231652960" split="0" ctrl_latitude_lo="0.0" ctrl_longitude_lo="0.0" ctrl_latitude_hi="0.0" ctrl_longitude_hi="0.0"/>
      <markings>
        <marking value="Solid Yellow (Black)"/>
      </markings>
    </object>
    <object class="WED_Group" id="10" parent_id="5">
      <children>
        <child id="521"/>
        <child id="522"/>
        <child id="523"/>
        <child id="524"/>
        <child id="525"/>
        <child id="2153"/>
        <child id="2152"/>
        <child id="526"/>
        <child id="2151"/>
        <child id="527"/>
      </children>
      <hierarchy name="Ramp Starts" locked="0" hidden="0"/>
    </object>
    <object class="WED_Ring" id="1978" parent_id="1979">
      <children>
        <child id="1980"/>
        <child id="1981"/>
        <child id="1982"/>
        <child id="1983"/>
      </children>
      <hierarchy name="Orthophoto 22 Outer Ring" locked="0" hidden="0"/>
    </object>
    <object class="WED_Group" id="11" parent_id="5">
      <children>
        <child id="18"/>
        <child id="21"/>
      </children>
      <hierarchy name="Runways" locked="0" hidden="0"/>
    </object>
    <object class="WED_AirportNode" id="395" parent_id="393">
      <children/>
      <hierarchy name="unnamed entity" locked="0" hidden="0"/>
      <point latitude="11.117351800" longitude="-74.231277460" split="0" ctrl_latitude_lo="0.0" ctrl_longitude_lo="0.0" ctrl_latitude_hi="0.0" ctrl_longitude_hi="0.0"/>
      <markings/>
    </object>
    <object class="WED_Group" id="12" parent_id="5">
      <children>
        <child id="517"/>
        <child id="518"/>
        <child id="519"/>
        <child id="520"/>
      </children>
      <hierarchy name="Signs" locked="0" hidden="0"/>
    </object>
    <object class="WED_Group" id="13" parent_id="5">
      <children>
        <child id="563"/>
        <child id="564"/>
        <child id="565"/>
        <child id="566"/>
        <child id="567"/>
        <child id="568"/>
        <child id="569"/>
        <child id="570"/>
        <child id="571"/>
        <child id="572"/>
        <child id="573"/>
        <child id="574"/>
        <child id="575"/>
        <child id="576"/>
        <child id="577"/>
        <child id="578"/>
        <child id="579"/>
        <child id="580"/>
        <child id="581"/>
        <child id="582"/>
        <child id="583"/>
        <child id="584"/>
        <child id="585"/>
        <child id="586"/>
        <child id="587"/>
        <child id="588"/>
        <child id="589"/>
        <child id="590"/>
        <child id="591"/>
        <child id="592"/>
        <child id="593"/>
        <child id="594"/>
        <child id="595"/>
        <child id="596"/>
        <child id="597"/>
        <child id="598"/>
        <child id="599"/>
        <child id="600"/>
        <child id="601"/>
        <child id="602"/>
        <child id="603"/>
        <child id="604"/>
        <child id="605"/>
        <child id="606"/>
        <child id="607"/>
        <child id="608"/>
        <child id="609"/>
        <child id="610"/>
        <child id="611"/>
        <child id="612"/>
        <child id="613"/>
        <child id="614"/>
        <child id="615"/>
        <child id="616"/>
        <child id="617"/>
        <child id="618"/>
        <child id="619"/>
        <child id="620"/>
        <child id="621"/>
        <child id="622"/>
      </children>
      <hierarchy name="Taxi Routes" locked="0" hidden="0"/>
    </object>
    <object class="WED_FacadeNode" id="956" parent_id="953">
      <children/>
      <hierarchy name="Point" locked="0" hidden="0"/>
      <point latitude="11.117872967" longitude="-74.232354361" split="0" ctrl_latitude_lo="0.0" ctrl_longitude_lo="0.0" ctrl_latitude_hi="0.0" ctrl_longitude_hi="0.0"/>
      <facade_node wall_type="Wall 1"/>
    </object>
    <object class="WED_Group" id="14" parent_id="5">
      <children>
        <child id="623"/>
        <child id="624"/>
        <child id="625"/>
        <child id="626"/>
        <child id="627"/>
        <child id="628"/>
        <child id="629"/>
        <child id="630"/>
        <child id="631"/>
        <child id="632"/>
        <child id="633"/>
        <child id="634"/>
        <child id="635"/>
        <child id="636"/>
        <child id="637"/>
      </children>
      <hierarchy name="Ground Routes" locked="0" hidden="0"/>
    </object>
    <object class="WED_Group" id="15" parent_id="5">
      <children>
        <child id="22"/>
        <child id="34"/>
        <child id="54"/>
        <child id="2081"/>
        <child id="2091"/>
        <child id="2293"/>
        <child id="68"/>
        <child id="2282"/>
        <child id="1133"/>
        <child id="2284"/>
        <child id="2283"/>
        <child id="118"/>
        <child id="147"/>
      </children>
      <hierarchy name="Taxiways" locked="0" hidden="0"/>
    </object>
    <object class="WED_ObjPlacement" id="1132" parent_id="4">
      <children/>
      <hierarchy name="AutoGate-perpendicular-18m-glass.obj" locked="0" hidden="0"/>
      <point latitude="11.117771948" longitude="-74.232290173" heading="270.00"/>
      <obj_placement custom_msl="0" msl="0.0" resource="Jetways-Glass/AutoGate-perpendicular-18m-glass.obj" show_level="1 Default"/>
    </object>
    <object class="WED_AirportNode" id="415" parent_id="412">
      <children/>
      <hierarchy name="unnamed entity" locked="0" hidden="0"/>
      <point latitude="11.118400890" longitude="-74.231662060" split="0" ctrl_latitude_lo="0.0" ctrl_longitude_lo="0.0" ctrl_latitude_hi="0.0" ctrl_longitude_hi="0.0"/>
      <markings/>
    </object>
    <object class="WED_Group" id="16" parent_id="5">
      <children>
        <child id="164"/>
        <child id="528"/>
      </children>
      <hierarchy name="Tower, Beacon and Boundaries" locked="0" hidden="0"/>
    </object>
    <object class="WED_Group" id="17" parent_id="5">
      <children>
        <child id="529"/>
        <child id="530"/>
      </children>
      <hierarchy name="Windsocks" locked="0" hidden="0"/>
    </object>
    <object class="WED_ObjPlacement" id="896" parent_id="808">
      <children/>
      <hierarchy name="Traffic_Cone_1.obj" locked="0" hidden="0"/>
      <point latitude="11.116977638" longitude="-74.232369975" heading="180.00"/>
      <obj_placement custom_msl="0" msl="0.0" resource="lib/airport/Ramp_Equipment/Traffic_Cone_1.obj" show_level="1 Default"/>
    </object>
    <object class="WED_Runway" id="18" parent_id="11">
      <children>
        <child id="19"/>
        <child id="20"/>
      </children>
      <hierarchy name="01/19" locked="0" hidden="0"/>
      <line width="40.00"/>
      <runway surface="Asphalt" shoulder="None" roughness="0.25" center_lites="1" edge_lites="MIRL" distance_signs="0" displaced1="0.0" blastpad1="75.0" markings1="Non-Precision (US)" app_lites1="None" TDZL1="0" REIL1="None" displaced2="0.0" blastpad2="30.0" markings2="Non-Precision (US)" app_lites2="None" TDZL2="0" REIL2="None"/>
    </object>
    <object class="WED_AirportChain" id="1922" parent_id="5">
      <children>
        <child id="1923"/>
        <child id="1924"/>
      </children>
      <hierarchy name="Linear Feature 7" locked="0" hidden="0"/>
      <airport_chain closed="0"/>
    </object>
    <object class="WED_RunwayNode" id="19" parent_id="18">
      <children/>
      <hierarchy name="unnamed entity" locked="0" hidden="0"/>
      <point latitude="11.112041790" longitude="-74.230465360"/>
    </object>
    <object class="WED_AirportNode" id="403" parent_id="400">
      <children/>
      <hierarchy name="unnamed entity" locked="0" hidden="0"/>
      <point latitude="11.116958850" longitude="-74.231653880" split="0" ctrl_latitude_lo="0.0" ctrl_longitude_lo="0.0" ctrl_latitude_hi="0.0" ctrl_longitude_hi="0.0"/>
      <markings/>
    </object>
    <object class="WED_RunwayNode" id="20" parent_id="18">
      <children/>
      <hierarchy name="unnamed entity" locked="0" hidden="0"/>
      <point latitude="11.127372960" longitude="-74.230799160"/>
    </object>
    <object class="WED_Helipad" id="21" parent_id="11">
      <children/>
      <hierarchy name="H1" locked="0" hidden="0"/>
      <point latitude="11.116472230" longitude="-74.231640550" heading="0.0" width="14.0" length="14.0"/>
      <helipad surface="Transparent" markings="Default" shoulder="None" roughness="0.0" lights="None"/>
    </object>
    <object class="WED_ObjPlacement" id="900" parent_id="808">
      <children/>
      <hierarchy name="Traffic_Cone_1.obj" locked="0" hidden="0"/>
      <point latitude="11.118500496" longitude="-74.232369427" heading="180.00"/>
      <obj_placement custom_msl="0" msl="0.0" resource="lib/airport/Ramp_Equipment/Traffic_Cone_1.obj" show_level="1 Default"/>
    </object>
    <object class="WED_AirportNode" id="413" parent_id="412">
      <children/>
      <hierarchy name="unnamed entity" locked="0" hidden="0"/>
      <point latitude="11.118606460" longitude="-74.231619870" split="0" ctrl_latitude_lo="0.0" ctrl_longitude_lo="0.0" ctrl_latitude_hi="0.0" ctrl_longitude_hi="0.0"/>
      <markings>
        <marking value="Solid Yellow (Black)"/>
      </markings>
    </object>
    <object class="WED_Taxiway" id="22" parent_id="15">
      <children>
        <child id="23"/>
      </children>
      <hierarchy name="New Taxiway 12" locked="0" hidden="0"/>
      <taxiway surface="Asphalt" roughness="0.0" heading="0.0"/>
    </object>
    <object class="WED_AirportChain" id="23" parent_id="22">
      <children>
        <child id="24"/>
        <child id="25"/>
        <child id="26"/>
        <child id="27"/>
        <child id="28"/>
        <child id="29"/>
        <child id="30"/>
        <child id="31"/>
        <child id="32"/>
        <child id="33"/>
      </children>
      <hierarchy name="unnamed entity" locked="0" hidden="0"/>
      <airport_chain closed="1"/>
    </object>
    <object class="WED_AirportNode" id="487" parent_id="485">
      <children/>
      <hierarchy name="unnamed entity" locked="0" hidden="0"/>
      <point latitude="11.117196450" longitude="-74.232165200" split="0" ctrl_latitude_lo="0.0" ctrl_longitude_lo="0.0" ctrl_latitude_hi="0.0" ctrl_longitude_hi="0.0"/>
      <markings>
        <marking value="Road Edge (Black)"/>
      </markings>
    </object>
    <object class="WED_AirportNode" id="24" parent_id="23">
      <children/>
      <hierarchy name="unnamed entity" locked="0" hidden="0"/>
      <point latitude="11.117617083" longitude="-74.233065350" split="0" ctrl_latitude_lo="0.0" ctrl_longitude_lo="0.0" ctrl_latitude_hi="0.0" ctrl_longitude_hi="0.0"/>
      <markings/>
    </object>
    <object class="WED_AirportNode" id="25" parent_id="23">
      <children/>
      <hierarchy name="unnamed entity" locked="0" hidden="0"/>
      <point latitude="11.117539703" longitude="-74.233140930" split="0" ctrl_latitude_lo="0.000040430" ctrl_longitude_lo="0.000032330" ctrl_latitude_hi="-0.000040430" ctrl_longitude_hi="-0.000032330"/>
      <markings/>
    </object>
    <object class="WED_ObjPlacement" id="904" parent_id="808">
      <children/>
      <hierarchy name="Traffic_Cone_1.obj" locked="0" hidden="0"/>
      <point latitude="11.118093135" longitude="-74.232389170" heading="0.0"/>
      <obj_placement custom_msl="0" msl="0.0" resource="lib/airport/Ramp_Equipment/Traffic_Cone_1.obj" show_level="1 Default"/>
    </object>
    <object class="WED_AirportNode" id="481" parent_id="476">
      <children/>
      <hierarchy name="unnamed entity" locked="0" hidden="0"/>
      <point latitude="11.117831330" longitude="-74.232394970" split="0" ctrl_latitude_lo="0.0" ctrl_longitude_lo="0.0" ctrl_latitude_hi="0.0" ctrl_longitude_hi="0.0"/>
      <markings>
        <marking value="Road Edge (Black)"/>
      </markings>
    </object>
    <object class="WED_AirportNode" id="26" parent_id="23">
      <children/>
      <hierarchy name="unnamed entity" locked="0" hidden="0"/>
      <point latitude="11.117436880" longitude="-74.233196396" split="0" ctrl_latitude_lo="0.0" ctrl_longitude_lo="0.0" ctrl_latitude_hi="0.0" ctrl_longitude_hi="0.0"/>
      <markings/>
    </object>
    <object class="WED_AirportNode" id="1930" parent_id="1928">
      <children/>
      <hierarchy name="Node 2" locked="0" hidden="0"/>
      <point latitude="11.118891375" longitude="-74.232321669" split="0" ctrl_latitude_lo="0.0" ctrl_longitude_lo="0.0" ctrl_latitude_hi="0.0" ctrl_longitude_hi="0.0"/>
      <markings>
        <marking value="Solid White (Roadway)"/>
      </markings>
    </object>
    <object class="WED_AirportNode" id="27" parent_id="23">
      <children/>
      <hierarchy name="unnamed entity" locked="0" hidden="0"/>
      <point latitude="11.117213310" longitude="-74.233194206" split="0" ctrl_latitude_lo="0.0" ctrl_longitude_lo="0.0" ctrl_latitude_hi="0.0" ctrl_longitude_hi="0.0"/>
      <markings/>
    </object>
    <object class="WED_FacadeNode" id="1024" parent_id="1013">
      <children/>
      <hierarchy name="Point" locked="0" hidden="0"/>
      <point latitude="11.117922567" longitude="-74.232485047" split="0" ctrl_latitude_lo="0.0" ctrl_longitude_lo="0.0" ctrl_latitude_hi="0.0" ctrl_longitude_hi="0.0"/>
      <facade_node wall_type="Wall 1"/>
    </object>
    <object class="WED_SimpleBezierBoundaryNode" id="1423" parent_id="1416">
      <children/>
      <hierarchy name="Node 6" locked="0" hidden="0"/>
      <point latitude="11.125762546" longitude="-74.231704568" split="0" ctrl_latitude_lo="0.000138670" ctrl_longitude_lo="-0.000148573" ctrl_latitude_hi="-0.000138670" ctrl_longitude_hi="0.000148573"/>
    </object>
    <object class="WED_AirportNode" id="28" parent_id="23">
      <children/>
      <hierarchy name="unnamed entity" locked="0" hidden="0"/>
      <point latitude="11.117171610" longitude="-74.233177496" split="0" ctrl_latitude_lo="0.000015550" ctrl_longitude_lo="-0.000012150" ctrl_latitude_hi="-0.000015550" ctrl_longitude_hi="0.000012150"/>
      <markings/>
    </object>
    <object class="WED_AirportNode" id="29" parent_id="23">
      <children/>
      <hierarchy name="unnamed entity" locked="0" hidden="0"/>
      <point latitude="11.117156570" longitude="-74.233134946" split="0" ctrl_latitude_lo="0.0" ctrl_longitude_lo="0.0" ctrl_latitude_hi="0.0" ctrl_longitude_hi="0.0"/>
      <markings/>
    </object>
    <object class="WED_ObjPlacement" id="908" parent_id="808">
      <children/>
      <hierarchy name="Traffic_Cone_1.obj" locked="0" hidden="0"/>
      <point latitude="11.117725621" longitude="-74.232382457" heading="135.00"/>
      <obj_placement custom_msl="0" msl="0.0" resource="lib/airport/Ramp_Equipment/Traffic_Cone_1.obj" show_level="1 Default"/>
    </object>
    <object class="WED_AirportChain" id="485" parent_id="9">
      <children>
        <child id="486"/>
        <child id="487"/>
        <child id="488"/>
        <child id="489"/>
        <child id="490"/>
        <child id="491"/>
        <child id="492"/>
        <child id="493"/>
      </children>
      <hierarchy name="Linear Feature 3" locked="0" hidden="0"/>
      <airport_chain closed="0"/>
    </object>
    <object class="WED_PolygonPlacement" id="1417" parent_id="4">
      <children>
        <child id="1416"/>
      </children>
      <hierarchy name="kachlik.pol" locked="0" hidden="0"/>
      <polygon_placement heading="0.0" resource="R2_Library/plochy/kachlik.pol"/>
    </object>
    <object class="WED_AirportNode" id="30" parent_id="23">
      <children/>
      <hierarchy name="unnamed entity" locked="0" hidden="0"/>
      <point latitude="11.117160860" longitude="-74.233034166" split="0" ctrl_latitude_lo="0.0" ctrl_longitude_lo="0.0" ctrl_latitude_hi="0.0" ctrl_longitude_hi="0.0"/>
      <markings/>
    </object>
    <object class="WED_AirportNode" id="31" parent_id="23">
      <children/>
      <hierarchy name="unnamed entity" locked="0" hidden="0"/>
      <point latitude="11.117171770" longitude="-74.232993486" split="0" ctrl_latitude_lo="-0.000009330" ctrl_longitude_lo="-0.000013210" ctrl_latitude_hi="0.000009330" ctrl_longitude_hi="0.000013210"/>
      <markings/>
    </object>
    <object class="WED_AirportNode" id="32" parent_id="23">
      <children/>
      <hierarchy name="unnamed entity" locked="0" hidden="0"/>
      <point latitude="11.117204930" longitude="-74.232977206" split="0" ctrl_latitude_lo="0.0" ctrl_longitude_lo="0.0" ctrl_latitude_hi="0.0" ctrl_longitude_hi="0.0"/>
      <markings/>
    </object>
    <object class="WED_FacadeNode" id="1084" parent_id="1071">
      <children/>
      <hierarchy name="Point" locked="0" hidden="0"/>
      <point latitude="11.123247531" longitude="-74.230143392" split="0" ctrl_latitude_lo="0.0" ctrl_longitude_lo="0.0" ctrl_latitude_hi="0.0" ctrl_longitude_hi="0.0"/>
      <facade_node wall_type="Wall 1"/>
    </object>
    <object class="WED_AirportNode" id="431" parent_id="430">
      <children/>
      <hierarchy name="unnamed entity" locked="0" hidden="0"/>
      <point latitude="11.118508449" longitude="-74.231933755" split="0" ctrl_latitude_lo="0.0" ctrl_longitude_lo="0.0" ctrl_latitude_hi="0.0" ctrl_longitude_hi="0.0"/>
      <markings>
        <marking value="Solid Yellow (Black)"/>
      </markings>
    </object>
    <object class="WED_ObjPlacement" id="848" parent_id="808">
      <children/>
      <hierarchy name="apron_light.obj" locked="0" hidden="0"/>
      <point latitude="11.117167691" longitude="-74.232323463" heading="0.0"/>
      <obj_placement custom_msl="0" msl="0.0" resource="lib/airport/landscape/apron_light.obj" show_level="1 Default"/>
    </object>
    <object class="WED_AirportNode" id="33" parent_id="23">
      <children/>
      <hierarchy name="unnamed entity" locked="0" hidden="0"/>
      <point latitude="11.117691989" longitude="-74.232990391" split="0" ctrl_latitude_lo="0.0" ctrl_longitude_lo="0.0" ctrl_latitude_hi="0.0" ctrl_longitude_hi="0.0"/>
      <markings/>
    </object>
    <object class="WED_Taxiway" id="34" parent_id="15">
      <children>
        <child id="35"/>
      </children>
      <hierarchy name="01" locked="0" hidden="0"/>
      <taxiway surface="Asphalt" roughness="0.0" heading="179.00"/>
    </object>
    <object class="WED_SimpleBoundaryNode" id="728" parent_id="712">
      <children/>
      <hierarchy name="Point" locked="0" hidden="0"/>
      <point latitude="11.119785473" longitude="-74.232311805"/>
    </object>
    <object class="WED_AirportNode" id="425" parent_id="424">
      <children/>
      <hierarchy name="unnamed entity" locked="0" hidden="0"/>
      <point latitude="11.118818765" longitude="-74.231797170" split="0" ctrl_latitude_lo="0.0" ctrl_longitude_lo="0.0" ctrl_latitude_hi="0.0" ctrl_longitude_hi="0.0"/>
      <markings>
        <marking value="Solid Yellow (Black)"/>
      </markings>
    </object>
    <object class="WED_FacadeNode" id="1086" parent_id="1071">
      <children/>
      <hierarchy name="Point" locked="0" hidden="0"/>
      <point latitude="11.123570703" longitude="-74.230075248" split="0" ctrl_latitude_lo="0.0" ctrl_longitude_lo="0.0" ctrl_latitude_hi="0.0" ctrl_longitude_hi="0.0"/>
      <facade_node wall_type="Wall 1"/>
    </object>
    <object class="WED_AirportChain" id="35" parent_id="34">
      <children>
        <child id="36"/>
        <child id="37"/>
        <child id="38"/>
        <child id="39"/>
        <child id="40"/>
        <child id="41"/>
        <child id="42"/>
        <child id="43"/>
        <child id="44"/>
        <child id="45"/>
        <child id="46"/>
        <child id="47"/>
        <child id="48"/>
        <child id="49"/>
        <child id="50"/>
        <child id="51"/>
        <child id="52"/>
        <child id="53"/>
      </children>
      <hierarchy name="unnamed entity" locked="0" hidden="0"/>
      <airport_chain closed="1"/>
    </object>
    <object class="WED_SimpleBezierBoundaryNode" id="1874" parent_id="1869">
      <children/>
      <hierarchy name="Node 4" locked="0" hidden="0"/>
      <point latitude="11.117749103" longitude="-74.233072328" split="0" ctrl_latitude_lo="0.0" ctrl_longitude_lo="0.0" ctrl_latitude_hi="0.0" ctrl_longitude_hi="0.0"/>
    </object>
    <object class="WED_Ring" id="1367" parent_id="1368">
      <children>
        <child id="1369"/>
        <child id="1370"/>
        <child id="1371"/>
        <child id="1372"/>
        <child id="1373"/>
        <child id="1374"/>
        <child id="1375"/>
        <child id="1376"/>
        <child id="1377"/>
        <child id="1378"/>
      </children>
      <hierarchy name="Polygon 1 Outer Ring" locked="0" hidden="0"/>
    </object>
    <object class="WED_AirportNode" id="36" parent_id="35">
      <children/>
      <hierarchy name="unnamed entity" locked="0" hidden="0"/>
      <point latitude="11.112750200" longitude="-74.230656650" split="0" ctrl_latitude_lo="0.0" ctrl_longitude_lo="0.0" ctrl_latitude_hi="0.0" ctrl_longitude_hi="0.0"/>
      <markings/>
    </object>
    <object class="WED_AirportChain" id="1746" parent_id="5">
      <children>
        <child id="1747"/>
        <child id="1748"/>
      </children>
      <hierarchy name="Linear Feature 6" locked="0" hidden="0"/>
      <airport_chain closed="0"/>
    </object>
    <object class="WED_AirportNode" id="419" parent_id="416">
      <children/>
      <hierarchy name="unnamed entity" locked="0" hidden="0"/>
      <point latitude="11.118070130" longitude="-74.231665300" split="0" ctrl_latitude_lo="0.0" ctrl_longitude_lo="0.0" ctrl_latitude_hi="0.0" ctrl_longitude_hi="0.0"/>
      <markings/>
    </object>
    <object class="WED_AirportNode" id="1735" parent_id="1733">
      <children/>
      <hierarchy name="Node 2" locked="0" hidden="0"/>
      <point latitude="11.117377123" longitude="-74.233228880" split="0" ctrl_latitude_lo="0.000054711" ctrl_longitude_lo="0.0" ctrl_latitude_hi="-0.000054711" ctrl_longitude_hi="0.0"/>
      <markings>
        <marking value="Solid White (Roadway)"/>
      </markings>
    </object>
    <object class="WED_ObjPlacement" id="852" parent_id="808">
      <children/>
      <hierarchy name="barrier_8m_01.obj" locked="0" hidden="0"/>
      <point latitude="11.119656128" longitude="-74.232083909" heading="107.81"/>
      <obj_placement custom_msl="0" msl="0.0" resource="lib/constructions/fencing/barriers/barrier_8m_01.obj" show_level="1 Default"/>
    </object>
    <object class="WED_AirportNode" id="37" parent_id="35">
      <children/>
      <hierarchy name="unnamed entity" locked="0" hidden="0"/>
      <point latitude="11.112746630" longitude="-74.230768510" split="1" ctrl_latitude_lo="0.0" ctrl_longitude_lo="0.0" ctrl_latitude_hi="-0.000048480" ctrl_longitude_hi="-0.000003900"/>
      <markings>
        <marking value="Boundary Edge Lights (Red)"/>
      </markings>
    </object>
    <object class="WED_ObjPlacement" id="1728" parent_id="4">
      <children/>
      <hierarchy name="car_mazda_wagon_taxiY.obj" locked="0" hidden="0"/>
      <point latitude="11.117088171" longitude="-74.232911798" heading="0.0"/>
      <obj_placement custom_msl="0" msl="0.0" resource="CDB-Library/Cars/cars/Mazda/car_mazda_wagon_taxiY.obj" show_level="1 Default"/>
    </object>
    <object class="WED_SimpleBoundaryNode" id="1361" parent_id="1357">
      <children/>
      <hierarchy name="Node 3" locked="0" hidden="0"/>
      <point latitude="11.120882738" longitude="-74.231633323"/>
    </object>
    <object class="WED_AirportNode" id="38" parent_id="35">
      <children/>
      <hierarchy name="unnamed entity" locked="0" hidden="0"/>
      <point latitude="11.112019120" longitude="-74.230758160" split="1" ctrl_latitude_lo="0.000105910" ctrl_longitude_lo="0.000029910" ctrl_latitude_hi="-0.000038280" ctrl_longitude_hi="-0.000003900"/>
      <markings>
        <marking value="Boundary Edge Lights (Red)"/>
      </markings>
    </object>
    <object class="WED_SimpleBoundaryNode" id="732" parent_id="712">
      <children/>
      <hierarchy name="Point" locked="0" hidden="0"/>
      <point latitude="11.117713464" longitude="-74.233202769"/>
    </object>
    <object class="WED_AirportNode" id="429" parent_id="427">
      <children/>
      <hierarchy name="unnamed entity" locked="0" hidden="0"/>
      <point latitude="11.118736869" longitude="-74.231695654" split="0" ctrl_latitude_lo="0.0" ctrl_longitude_lo="0.0" ctrl_latitude_hi="0.0" ctrl_longitude_hi="0.0"/>
      <markings/>
    </object>
    <object class="WED_AirportNode" id="39" parent_id="35">
      <children/>
      <hierarchy name="unnamed entity" locked="0" hidden="0"/>
      <point latitude="11.111990600" longitude="-74.230741210" split="0" ctrl_latitude_lo="0.0" ctrl_longitude_lo="0.0" ctrl_latitude_hi="0.0" ctrl_longitude_hi="0.0"/>
      <markings>
        <marking value="Boundary Edge Lights (Red)"/>
      </markings>
    </object>
    <object class="WED_AirportNode" id="40" parent_id="35">
      <children/>
      <hierarchy name="unnamed entity" locked="0" hidden="0"/>
      <point latitude="11.111987200" longitude="-74.230663460" split="0" ctrl_latitude_lo="0.0" ctrl_longitude_lo="0.0" ctrl_latitude_hi="0.0" ctrl_longitude_hi="0.0"/>
      <markings>
        <marking value="Boundary Edge Lights (Red)"/>
      </markings>
    </object>
    <object class="WED_AirportChain" id="439" parent_id="9">
      <children>
        <child id="440"/>
        <child id="441"/>
      </children>
      <hierarchy name="Linear Feature 5" locked="0" hidden="0"/>
      <airport_chain closed="0"/>
    </object>
    <object class="WED_FacadeNode" id="1028" parent_id="1013">
      <children/>
      <hierarchy name="Point" locked="0" hidden="0"/>
      <point latitude="11.116787758" longitude="-74.232820605" split="0" ctrl_latitude_lo="0.0" ctrl_longitude_lo="0.0" ctrl_latitude_hi="0.0" ctrl_longitude_hi="0.0"/>
      <facade_node wall_type="Wall 1"/>
    </object>
    <object class="WED_AirportNode" id="41" parent_id="35">
      <children/>
      <hierarchy name="unnamed entity" locked="0" hidden="0"/>
      <point latitude="11.111870890" longitude="-74.230664820" split="0" ctrl_latitude_lo="0.0" ctrl_longitude_lo="0.0" ctrl_latitude_hi="0.0" ctrl_longitude_hi="0.0"/>
      <markings>
        <marking value="Boundary Edge Lights (Red)"/>
      </markings>
    </object>
    <object class="WED_AirportNode" id="42" parent_id="35">
      <children/>
      <hierarchy name="unnamed entity" locked="0" hidden="0"/>
      <point latitude="11.111850580" longitude="-74.230650100" split="0" ctrl_latitude_lo="0.0" ctrl_longitude_lo="0.0" ctrl_latitude_hi="0.0" ctrl_longitude_hi="0.0"/>
      <markings>
        <marking value="Boundary Edge Lights (Red)"/>
      </markings>
    </object>
    <object class="WED_AirportChain" id="433" parent_id="9">
      <children>
        <child id="434"/>
        <child id="435"/>
      </children>
      <hierarchy name="Linear Feature 5" locked="0" hidden="0"/>
      <airport_chain closed="0"/>
    </object>
    <object class="WED_FacadeRing" id="1030" parent_id="1029">
      <children>
        <child id="1031"/>
        <child id="1032"/>
        <child id="1033"/>
        <child id="1034"/>
      </children>
      <hierarchy name="Ring" locked="0" hidden="0"/>
    </object>
    <object class="WED_AirportNode" id="43" parent_id="35">
      <children/>
      <hierarchy name="unnamed entity" locked="0" hidden="0"/>
      <point latitude="11.111357820" longitude="-74.230640560" split="0" ctrl_latitude_lo="0.0" ctrl_longitude_lo="0.0" ctrl_latitude_hi="0.0" ctrl_longitude_hi="0.0"/>
      <markings/>
    </object>
    <object class="WED_ObjPlacement" id="1882" parent_id="4">
      <children/>
      <hierarchy name="Box_Truck_Fedex.obj" locked="0" hidden="0"/>
      <point latitude="11.118076295" longitude="-74.232686488" heading="-90.00"/>
      <obj_placement custom_msl="0" msl="0.0" resource="MisterX_Library/Airport/Vehicles/Trucks/Box_Truck_Fedex.obj" show_level="1 Default"/>
    </object>
    <object class="WED_SimpleBezierBoundaryNode" id="1375" parent_id="1367">
      <children/>
      <hierarchy name="Node 7" locked="0" hidden="0"/>
      <point latitude="11.128191132" longitude="-74.230767213" split="0" ctrl_latitude_lo="0.0" ctrl_longitude_lo="0.0" ctrl_latitude_hi="0.0" ctrl_longitude_hi="0.0"/>
    </object>
    <object class="WED_AirportNode" id="44" parent_id="35">
      <children/>
      <hierarchy name="unnamed entity" locked="0" hidden="0"/>
      <point latitude="11.111103250" longitude="-74.230517560" split="0" ctrl_latitude_lo="0.0" ctrl_longitude_lo="0.0" ctrl_latitude_hi="0.0" ctrl_longitude_hi="0.0"/>
      <markings/>
    </object>
    <object class="WED_AirportChain" id="427" parent_id="9">
      <children>
        <child id="428"/>
        <child id="429"/>
      </children>
      <hierarchy name="Linear Feature 5" locked="0" hidden="0"/>
      <airport_chain closed="0"/>
    </object>
    <object class="WED_AirportNode" id="45" parent_id="35">
      <children/>
      <hierarchy name="unnamed entity" locked="0" hidden="0"/>
      <point latitude="11.111109080" longitude="-74.230287850" split="0" ctrl_latitude_lo="0.0" ctrl_longitude_lo="0.0" ctrl_latitude_hi="0.0" ctrl_longitude_hi="0.0"/>
      <markings/>
    </object>
    <object class="WED_AirportNode" id="1736" parent_id="1733">
      <children/>
      <hierarchy name="Node 3" locked="0" hidden="0"/>
      <point latitude="11.117164114" longitude="-74.233228880" split="0" ctrl_latitude_lo="0.0" ctrl_longitude_lo="0.0" ctrl_latitude_hi="0.0" ctrl_longitude_hi="0.0"/>
      <markings>
        <marking value="Solid White (Roadway)"/>
      </markings>
    </object>
    <object class="WED_SimpleBezierBoundaryNode" id="1369" parent_id="1367">
      <children/>
      <hierarchy name="Node 1" locked="0" hidden="0"/>
      <point latitude="11.127252095" longitude="-74.231572126" split="0" ctrl_latitude_lo="0.0" ctrl_longitude_lo="0.0" ctrl_latitude_hi="0.0" ctrl_longitude_hi="0.0"/>
    </object>
    <object class="WED_AirportNode" id="46" parent_id="35">
      <children/>
      <hierarchy name="unnamed entity" locked="0" hidden="0"/>
      <point latitude="11.111363170" longitude="-74.230296760" split="0" ctrl_latitude_lo="0.0" ctrl_longitude_lo="0.0" ctrl_latitude_hi="0.0" ctrl_longitude_hi="0.0"/>
      <markings>
        <marking value="Boundary Edge Lights (Red)"/>
      </markings>
    </object>
    <object class="WED_AirportNode" id="437" parent_id="436">
      <children/>
      <hierarchy name="unnamed entity" locked="0" hidden="0"/>
      <point latitude="11.117775857" longitude="-74.231930003" split="0" ctrl_latitude_lo="0.0" ctrl_longitude_lo="0.0" ctrl_latitude_hi="0.0" ctrl_longitude_hi="0.0"/>
      <markings>
        <marking value="Solid Yellow (Black)"/>
      </markings>
    </object>
    <object class="WED_AirportNode" id="47" parent_id="35">
      <children/>
      <hierarchy name="unnamed entity" locked="0" hidden="0"/>
      <point latitude="11.111368920" longitude="-74.230126470" split="0" ctrl_latitude_lo="0.0" ctrl_longitude_lo="0.0" ctrl_latitude_hi="0.0" ctrl_longitude_hi="0.0"/>
      <markings>
        <marking value="Boundary Edge Lights (Red)"/>
      </markings>
    </object>
    <object class="WED_AirportNode" id="48" parent_id="35">
      <children/>
      <hierarchy name="unnamed entity" locked="0" hidden="0"/>
      <point latitude="11.112006670" longitude="-74.230139390" split="0" ctrl_latitude_lo="0.0" ctrl_longitude_lo="0.0" ctrl_latitude_hi="0.0" ctrl_longitude_hi="0.0"/>
      <markings>
        <marking value="Boundary Edge Lights (Red)"/>
      </markings>
    </object>
    <object class="WED_FacadeRing" id="1036" parent_id="1035">
      <children>
        <child id="1037"/>
        <child id="1038"/>
        <child id="1039"/>
        <child id="1040"/>
        <child id="1041"/>
        <child id="1042"/>
      </children>
      <hierarchy name="Ring" locked="0" hidden="0"/>
    </object>
    <object class="WED_ObjPlacement" id="928" parent_id="808">
      <children/>
      <hierarchy name="Cargo_Palette_1.obj" locked="0" hidden="0"/>
      <point latitude="11.118964979" longitude="-74.232212247" heading="18.99"/>
      <obj_placement custom_msl="0" msl="0.0" resource="lib/airport/Ramp_Equipment/Cargo_Palette_1.obj" show_level="1 Default"/>
    </object>
    <object class="WED_AirportNode" id="49" parent_id="35">
      <children/>
      <hierarchy name="unnamed entity" locked="0" hidden="0"/>
      <point latitude="11.112014310" longitude="-74.230113160" split="0" ctrl_latitude_lo="0.0" ctrl_longitude_lo="0.0" ctrl_latitude_hi="0.0" ctrl_longitude_hi="0.0"/>
      <markings>
        <marking value="Boundary Edge Lights (Red)"/>
      </markings>
    </object>
    <object class="WED_AirportNode" id="50" parent_id="35">
      <children/>
      <hierarchy name="unnamed entity" locked="0" hidden="0"/>
      <point latitude="11.112493340" longitude="-74.230117160" split="0" ctrl_latitude_lo="0.0" ctrl_longitude_lo="0.0" ctrl_latitude_hi="0.0" ctrl_longitude_hi="0.0"/>
      <markings>
        <marking value="Boundary Edge Lights (Red)"/>
      </markings>
    </object>
    <object class="WED_AirportNode" id="441" parent_id="439">
      <children/>
      <hierarchy name="unnamed entity" locked="0" hidden="0"/>
      <point latitude="11.117036090" longitude="-74.231755040" split="0" ctrl_latitude_lo="0.0" ctrl_longitude_lo="0.0" ctrl_latitude_hi="0.0" ctrl_longitude_hi="0.0"/>
      <markings/>
    </object>
    <object class="WED_FacadeNode" id="1038" parent_id="1036">
      <children/>
      <hierarchy name="Point" locked="0" hidden="0"/>
      <point latitude="11.119237901" longitude="-74.232205175" split="0" ctrl_latitude_lo="0.0" ctrl_longitude_lo="0.0" ctrl_latitude_hi="0.0" ctrl_longitude_hi="0.0"/>
      <facade_node wall_type="Wall 1"/>
    </object>
    <object class="WED_AirportNode" id="51" parent_id="35">
      <children/>
      <hierarchy name="unnamed entity" locked="0" hidden="0"/>
      <point latitude="11.112663380" longitude="-74.230237300" split="0" ctrl_latitude_lo="0.0" ctrl_longitude_lo="0.0" ctrl_latitude_hi="0.0" ctrl_longitude_hi="0.0"/>
      <markings/>
    </object>
    <object class="WED_AirportNode" id="1954" parent_id="1953">
      <children/>
      <hierarchy name="Node 1" locked="0" hidden="0"/>
      <point latitude="11.118306154" longitude="-74.232758545" split="0" ctrl_latitude_lo="0.0" ctrl_longitude_lo="0.0" ctrl_latitude_hi="0.0" ctrl_longitude_hi="0.0"/>
      <markings>
        <marking value="Wide Broken Single Yellow"/>
      </markings>
    </object>
    <object class="WED_AirportNode" id="52" parent_id="35">
      <children/>
      <hierarchy name="unnamed entity" locked="0" hidden="0"/>
      <point latitude="11.112784560" longitude="-74.230235890" split="0" ctrl_latitude_lo="0.0" ctrl_longitude_lo="0.0" ctrl_latitude_hi="0.0" ctrl_longitude_hi="0.0"/>
      <markings/>
    </object>
    <object class="WED_SimpleBezierBoundaryNode" id="1447" parent_id="1445">
      <children/>
      <hierarchy name="Node 1" locked="0" hidden="0"/>
      <point latitude="11.119522050" longitude="-74.232176697" split="0" ctrl_latitude_lo="0.0" ctrl_longitude_lo="0.0" ctrl_latitude_hi="0.0" ctrl_longitude_hi="0.0"/>
    </object>
    <object class="WED_AirportNode" id="435" parent_id="433">
      <children/>
      <hierarchy name="unnamed entity" locked="0" hidden="0"/>
      <point latitude="11.118149190" longitude="-74.231765280" split="0" ctrl_latitude_lo="0.0" ctrl_longitude_lo="0.0" ctrl_latitude_hi="0.0" ctrl_longitude_hi="0.0"/>
      <markings/>
    </object>
    <object class="WED_AirportNode" id="1751" parent_id="1749">
      <children/>
      <hierarchy name="Node 2" locked="0" hidden="0"/>
      <point latitude="11.117717262" longitude="-74.233036064" split="0" ctrl_latitude_lo="0.0" ctrl_longitude_lo="0.0" ctrl_latitude_hi="0.0" ctrl_longitude_hi="0.0"/>
      <markings>
        <marking value="Broken White (Roadway)"/>
      </markings>
    </object>
    <object class="WED_ObjPlacement" id="932" parent_id="808">
      <children/>
      <hierarchy name="6_wLines.obj" locked="0" hidden="0"/>
      <point latitude="11.117328323" longitude="-74.232987012" heading="89.29"/>
      <obj_placement custom_msl="0" msl="0.0" resource="lib/airport/Common_Elements/Parking/6_wLines.obj" show_level="1 Default"/>
    </object>
    <object class="WED_AirportNode" id="53" parent_id="35">
      <children/>
      <hierarchy name="unnamed entity" locked="0" hidden="0"/>
      <point latitude="11.112797520" longitude="-74.230356850" split="0" ctrl_latitude_lo="0.0" ctrl_longitude_lo="0.0" ctrl_latitude_hi="0.0" ctrl_longitude_hi="0.0"/>
      <markings/>
    </object>
    <object class="WED_Taxiway" id="54" parent_id="15">
      <children>
        <child id="55"/>
      </children>
      <hierarchy name="FUEL HANGAR" locked="0" hidden="0"/>
      <taxiway surface="Concrete" roughness="0.0" heading="16.20"/>
    </object>
    <object class="WED_SimpleBezierBoundaryNode" id="1441" parent_id="1436">
      <children/>
      <hierarchy name="Node 4" locked="0" hidden="0"/>
      <point latitude="11.120614000" longitude="-74.231763806" split="0" ctrl_latitude_lo="0.0" ctrl_longitude_lo="0.0" ctrl_latitude_hi="0.0" ctrl_longitude_hi="0.0"/>
    </object>
    <object class="WED_AirportChain" id="55" parent_id="54">
      <children>
        <child id="56"/>
        <child id="57"/>
        <child id="58"/>
        <child id="59"/>
        <child id="60"/>
        <child id="61"/>
        <child id="62"/>
        <child id="63"/>
        <child id="64"/>
        <child id="65"/>
        <child id="66"/>
        <child id="67"/>
      </children>
      <hierarchy name="unnamed entity" locked="0" hidden="0"/>
      <airport_chain closed="1"/>
    </object>
    <object class="WED_AirportNode" id="56" parent_id="55">
      <children/>
      <hierarchy name="unnamed entity" locked="0" hidden="0"/>
      <point latitude="11.120105040" longitude="-74.231876010" split="0" ctrl_latitude_lo="0.0" ctrl_longitude_lo="0.0" ctrl_latitude_hi="0.0" ctrl_longitude_hi="0.0"/>
      <markings/>
    </object>
    <object class="WED_AirportNode" id="391" parent_id="370">
      <children/>
      <hierarchy name="unnamed entity" locked="0" hidden="0"/>
      <point latitude="11.118865780" longitude="-74.232259700" split="1" ctrl_latitude_lo="-0.000019180" ctrl_longitude_lo="-0.000005330" ctrl_latitude_hi="0.0" ctrl_longitude_hi="0.0"/>
      <markings>
        <marking value="Solid White (Roadway)"/>
      </markings>
    </object>
    <object class="WED_FacadeRing" id="1044" parent_id="1043">
      <children>
        <child id="1045"/>
        <child id="1046"/>
        <child id="1047"/>
        <child id="1048"/>
        <child id="1049"/>
        <child id="1050"/>
        <child id="1051"/>
        <child id="1052"/>
        <child id="1053"/>
        <child id="1054"/>
        <child id="1055"/>
        <child id="1056"/>
        <child id="1057"/>
        <child id="1058"/>
        <child id="1059"/>
        <child id="1060"/>
        <child id="1061"/>
        <child id="1062"/>
        <child id="1063"/>
        <child id="1064"/>
        <child id="1065"/>
        <child id="1066"/>
        <child id="1067"/>
        <child id="1068"/>
        <child id="1069"/>
      </children>
      <hierarchy name="Ring" locked="0" hidden="0"/>
    </object>
    <object class="WED_AirportNode" id="57" parent_id="55">
      <children/>
      <hierarchy name="unnamed entity" locked="0" hidden="0"/>
      <point latitude="11.120030860" longitude="-74.231634590" split="0" ctrl_latitude_lo="0.0" ctrl_longitude_lo="0.0" ctrl_latitude_hi="0.0" ctrl_longitude_hi="0.0"/>
      <markings/>
    </object>
    <object class="WED_AirportNode" id="58" parent_id="55">
      <children/>
      <hierarchy name="unnamed entity" locked="0" hidden="0"/>
      <point latitude="11.119953520" longitude="-74.231593260" split="1" ctrl_latitude_lo="0.000068790" ctrl_longitude_lo="-0.000014900" ctrl_latitude_hi="0.0" ctrl_longitude_hi="0.0"/>
      <markings/>
    </object>
    <object class="WED_AirportNode" id="385" parent_id="370">
      <children/>
      <hierarchy name="unnamed entity" locked="0" hidden="0"/>
      <point latitude="11.117202550" longitude="-74.231932880" split="0" ctrl_latitude_lo="0.0" ctrl_longitude_lo="0.0" ctrl_latitude_hi="0.0" ctrl_longitude_hi="0.0"/>
      <markings>
        <marking value="Solid White (Roadway)"/>
      </markings>
    </object>
    <object class="WED_FacadeNode" id="1046" parent_id="1044">
      <children/>
      <hierarchy name="Point" locked="0" hidden="0"/>
      <point latitude="11.116681910" longitude="-74.232816747" split="0" ctrl_latitude_lo="0.0" ctrl_longitude_lo="0.0" ctrl_latitude_hi="0.0" ctrl_longitude_hi="0.0"/>
      <facade_node wall_type="Wall 1"/>
    </object>
    <object class="WED_AirportNode" id="59" parent_id="55">
      <children/>
      <hierarchy name="unnamed entity" locked="0" hidden="0"/>
      <point latitude="11.119636060" longitude="-74.231512180" split="0" ctrl_latitude_lo="0.0" ctrl_longitude_lo="0.0" ctrl_latitude_hi="0.0" ctrl_longitude_hi="0.0"/>
      <markings/>
    </object>
    <object class="WED_TextureBezierNode" id="1962" parent_id="1960">
      <children/>
      <hierarchy name="Node 1" locked="0" hidden="0"/>
      <point latitude="11.116470783" longitude="-74.231705621" split="0" ctrl_latitude_lo="0.0" ctrl_longitude_lo="0.0" ctrl_latitude_hi="0.0" ctrl_longitude_hi="0.0"/>
      <texture_node s="0.0" t="0.0" sc_lo="0.0" tc_lo="0.0" sc_hi="0.0" tc_hi="0.0"/>
    </object>
    <object class="WED_AirportNode" id="60" parent_id="55">
      <children/>
      <hierarchy name="unnamed entity" locked="0" hidden="0"/>
      <point latitude="11.119775320" longitude="-74.231475600" split="0" ctrl_latitude_lo="0.0" ctrl_longitude_lo="0.0" ctrl_latitude_hi="0.0" ctrl_longitude_hi="0.0"/>
      <markings/>
    </object>
    <object class="WED_SimpleBoundaryNode" id="1455" parent_id="1451">
      <children/>
      <hierarchy name="Node 3" locked="0" hidden="0"/>
      <point latitude="11.115178043" longitude="-74.231256787"/>
    </object>
    <object class="WED_DrapedOrthophoto" id="1759" parent_id="4">
      <children>
        <child id="1758"/>
      </children>
      <hierarchy name="taxi_stop.pol" locked="0" hidden="0"/>
      <draped_orthophoto heading="35.6" resource="CDB-Library/Airport/paviment/taxi_stop.pol" tex_top="1.0000" tex_bottom="0.0" tex_left="0.0" tex_right="1.0000"/>
    </object>
    <object class="WED_FacadePlacement" id="940" parent_id="814">
      <children>
        <child id="941"/>
      </children>
      <hierarchy name="term_bridge_01.fac" locked="0" hidden="0"/>
      <facade_placement height="10" resource="lib/airport/Modern_Airports/Terminal_kit/term_bridge_01.fac" pick_walls="1" show_level="1 Default"/>
    </object>
    <object class="WED_AirportNode" id="61" parent_id="55">
      <children/>
      <hierarchy name="unnamed entity" locked="0" hidden="0"/>
      <point latitude="11.120050480" longitude="-74.231552170" split="0" ctrl_latitude_lo="0.0" ctrl_longitude_lo="0.0" ctrl_latitude_hi="0.0" ctrl_longitude_hi="0.0"/>
      <markings/>
    </object>
    <object class="WED_AirportNode" id="62" parent_id="55">
      <children/>
      <hierarchy name="unnamed entity" locked="0" hidden="0"/>
      <point latitude="11.120267740" longitude="-74.231488280" split="0" ctrl_latitude_lo="0.0" ctrl_longitude_lo="0.0" ctrl_latitude_hi="0.0" ctrl_longitude_hi="0.0"/>
      <markings/>
    </object>
    <object class="WED_SimpleBezierBoundaryNode" id="1449" parent_id="1445">
      <children/>
      <hierarchy name="Node 3" locked="0" hidden="0"/>
      <point latitude="11.119294883" longitude="-74.232380528" split="0" ctrl_latitude_lo="0.0" ctrl_longitude_lo="0.0" ctrl_latitude_hi="0.0" ctrl_longitude_hi="0.0"/>
    </object>
    <object class="WED_AirportNode" id="389" parent_id="370">
      <children/>
      <hierarchy name="unnamed entity" locked="0" hidden="0"/>
      <point latitude="11.116756180" longitude="-74.232384410" split="0" ctrl_latitude_lo="0.0" ctrl_longitude_lo="0.0" ctrl_latitude_hi="0.0" ctrl_longitude_hi="0.0"/>
      <markings>
        <marking value="Solid White (Roadway)"/>
      </markings>
    </object>
    <object class="WED_AirportNode" id="63" parent_id="55">
      <children/>
      <hierarchy name="unnamed entity" locked="0" hidden="0"/>
      <point latitude="11.120270020" longitude="-74.231488190" split="0" ctrl_latitude_lo="0.0" ctrl_longitude_lo="0.0" ctrl_latitude_hi="0.0" ctrl_longitude_hi="0.0"/>
      <markings/>
    </object>
    <object class="WED_AirportNode" id="64" parent_id="55">
      <children/>
      <hierarchy name="unnamed entity" locked="0" hidden="0"/>
      <point latitude="11.120417940" longitude="-74.231447070" split="0" ctrl_latitude_lo="0.0" ctrl_longitude_lo="0.0" ctrl_latitude_hi="0.0" ctrl_longitude_hi="0.0"/>
      <markings/>
    </object>
    <object class="WED_ObjPlacement" id="1116" parent_id="4">
      <children/>
      <hierarchy name="JetwayCon-05m-glass.obj" locked="0" hidden="0"/>
      <point latitude="11.118251962" longitude="-74.232341039" heading="0.0"/>
      <obj_placement custom_msl="0" msl="0.0" resource="Jetways-Glass/JetwayCon-05m-glass.obj" show_level="1 Default"/>
    </object>
    <object class="WED_AirportNode" id="463" parent_id="454">
      <children/>
      <hierarchy name="unnamed entity" locked="0" hidden="0"/>
      <point latitude="11.118720980" longitude="-74.231887380" split="0" ctrl_latitude_lo="0.0" ctrl_longitude_lo="0.0" ctrl_latitude_hi="0.0" ctrl_longitude_hi="0.0"/>
      <markings/>
    </object>
    <object class="WED_AirportNode" id="66" parent_id="55">
      <children/>
      <hierarchy name="unnamed entity" locked="0" hidden="0"/>
      <point latitude="11.120805030" longitude="-74.231412400" split="0" ctrl_latitude_lo="0.0" ctrl_longitude_lo="0.0" ctrl_latitude_hi="0.0" ctrl_longitude_hi="0.0"/>
      <markings/>
    </object>
    <object class="WED_ObjPlacement" id="1118" parent_id="4">
      <children/>
      <hierarchy name="JetwayCon-05m-glass.obj" locked="0" hidden="0"/>
      <point latitude="11.117145543" longitude="-74.232329502" heading="0.0"/>
      <obj_placement custom_msl="0" msl="0.0" resource="Jetways-Glass/JetwayCon-05m-glass.obj" show_level="1 Default"/>
    </object>
    <object class="WED_AirportNode" id="457" parent_id="454">
      <children/>
      <hierarchy name="unnamed entity" locked="0" hidden="0"/>
      <point latitude="11.118438410" longitude="-74.232326900" split="0" ctrl_latitude_lo="0.0" ctrl_longitude_lo="0.0" ctrl_latitude_hi="0.0" ctrl_longitude_hi="0.0"/>
      <markings>
        <marking value="Road Edge (Black)"/>
      </markings>
    </object>
    <object class="WED_AirportNode" id="67" parent_id="55">
      <children/>
      <hierarchy name="unnamed entity" locked="0" hidden="0"/>
      <point latitude="11.120874620" longitude="-74.231636500" split="0" ctrl_latitude_lo="0.0" ctrl_longitude_lo="0.0" ctrl_latitude_hi="0.0" ctrl_longitude_hi="0.0"/>
      <markings/>
    </object>
    <object class="WED_FacadeNode" id="1527" parent_id="1522">
      <children/>
      <hierarchy name="Node 4" locked="0" hidden="0"/>
      <point latitude="11.126205038" longitude="-74.232219208" split="0" ctrl_latitude_lo="0.0" ctrl_longitude_lo="0.0" ctrl_latitude_hi="0.0" ctrl_longitude_hi="0.0"/>
      <facade_node wall_type="Wall 1"/>
    </object>
    <object class="WED_Taxiway" id="68" parent_id="15">
      <children>
        <child id="69"/>
        <child id="111"/>
      </children>
      <hierarchy name="TWY" locked="0" hidden="0"/>
      <taxiway surface="Asphalt" roughness="0.0" heading="12.00"/>
    </object>
    <object class="WED_FacadePlacement" id="1012" parent_id="814">
      <children>
        <child id="1013"/>
      </children>
      <hierarchy name="modern1.fac" locked="0" hidden="0"/>
      <facade_placement height="10" resource="lib/airport/Modern_Airports/Facades/modern1.fac" pick_walls="1" show_level="1 Default"/>
    </object>
    <object class="WED_AirportChain" id="69" parent_id="68">
      <children>
        <child id="70"/>
        <child id="71"/>
        <child id="72"/>
        <child id="73"/>
        <child id="74"/>
        <child id="75"/>
        <child id="76"/>
        <child id="77"/>
        <child id="78"/>
        <child id="79"/>
        <child id="80"/>
        <child id="81"/>
        <child id="82"/>
        <child id="83"/>
        <child id="84"/>
        <child id="85"/>
        <child id="86"/>
        <child id="87"/>
        <child id="88"/>
        <child id="89"/>
        <child id="90"/>
        <child id="91"/>
        <child id="92"/>
        <child id="93"/>
        <child id="94"/>
        <child id="95"/>
        <child id="96"/>
        <child id="97"/>
        <child id="98"/>
        <child id="99"/>
        <child id="100"/>
        <child id="101"/>
        <child id="102"/>
        <child id="103"/>
        <child id="104"/>
        <child id="105"/>
        <child id="106"/>
        <child id="107"/>
        <child id="108"/>
        <child id="109"/>
        <child id="110"/>
      </children>
      <hierarchy name="unnamed entity" locked="0" hidden="0"/>
      <airport_chain closed="1"/>
    </object>
    <object class="WED_FacadeNode" id="1521" parent_id="1515">
      <children/>
      <hierarchy name="Node 5" locked="0" hidden="0"/>
      <point latitude="11.126502993" longitude="-74.231599478" split="0" ctrl_latitude_lo="0.0" ctrl_longitude_lo="0.0" ctrl_latitude_hi="0.0" ctrl_longitude_hi="0.0"/>
      <facade_node wall_type="Wall 1"/>
    </object>
    <object class="WED_AirportNode" id="70" parent_id="69">
      <children/>
      <hierarchy name="unnamed entity" locked="0" hidden="0"/>
      <point latitude="11.122465200" longitude="-74.230847920" split="0" ctrl_latitude_lo="0.0" ctrl_longitude_lo="0.0" ctrl_latitude_hi="0.0" ctrl_longitude_hi="0.0"/>
      <markings/>
    </object>
    <object class="WED_AirportNode" id="461" parent_id="454">
      <children/>
      <hierarchy name="unnamed entity" locked="0" hidden="0"/>
      <point latitude="11.118572680" longitude="-74.232329010" split="0" ctrl_latitude_lo="0.0" ctrl_longitude_lo="0.0" ctrl_latitude_hi="0.0" ctrl_longitude_hi="0.0"/>
      <markings>
        <marking value="Road Edge (Black)"/>
      </markings>
    </object>
    <object class="WED_AirportNode" id="71" parent_id="69">
      <children/>
      <hierarchy name="unnamed entity" locked="0" hidden="0"/>
      <point latitude="11.122449270" longitude="-74.230872390" split="0" ctrl_latitude_lo="0.0" ctrl_longitude_lo="0.0" ctrl_latitude_hi="0.0" ctrl_longitude_hi="0.0"/>
      <markings>
        <marking value="Solid Yellow (Black)"/>
        <marking value="Taxiway Edge Lights (Blue)"/>
      </markings>
    </object>
    <object class="WED_AirportNode" id="72" parent_id="69">
      <children/>
      <hierarchy name="unnamed entity" locked="0" hidden="0"/>
      <point latitude="11.122099910" longitude="-74.230946930" split="0" ctrl_latitude_lo="0.0" ctrl_longitude_lo="0.0" ctrl_latitude_hi="0.0" ctrl_longitude_hi="0.0"/>
      <markings>
        <marking value="Solid Yellow (Black)"/>
        <marking value="Taxiway Edge Lights (Blue)"/>
      </markings>
    </object>
    <object class="WED_ObjPlacement" id="1188" parent_id="4">
      <children/>
      <hierarchy name="peeps_beachM1.obj" locked="0" hidden="0"/>
      <point latitude="11.128130407" longitude="-74.230841161" heading="-201.41"/>
      <obj_placement custom_msl="0" msl="0.0" resource="CDB-Library/Peeps/beach/peeps_beachM1.obj" show_level="1 Default"/>
    </object>
    <object class="WED_AirportNode" id="471" parent_id="467">
      <children/>
      <hierarchy name="unnamed entity" locked="0" hidden="0"/>
      <point latitude="11.118072780" longitude="-74.232398140" split="0" ctrl_latitude_lo="0.0" ctrl_longitude_lo="0.0" ctrl_latitude_hi="0.0" ctrl_longitude_hi="0.0"/>
      <markings>
        <marking value="Road Edge (Black)"/>
      </markings>
    </object>
    <object class="WED_FacadeNode" id="1016" parent_id="1013">
      <children/>
      <hierarchy name="Point" locked="0" hidden="0"/>
      <point latitude="11.116781966" longitude="-74.232470779" split="0" ctrl_latitude_lo="0.0" ctrl_longitude_lo="0.0" ctrl_latitude_hi="0.0" ctrl_longitude_hi="0.0"/>
      <facade_node wall_type="Wall 1"/>
    </object>
    <object class="WED_AirportNode" id="73" parent_id="69">
      <children/>
      <hierarchy name="unnamed entity" locked="0" hidden="0"/>
      <point latitude="11.121191960" longitude="-74.231160810" split="0" ctrl_latitude_lo="0.0" ctrl_longitude_lo="0.0" ctrl_latitude_hi="0.0" ctrl_longitude_hi="0.0"/>
      <markings>
        <marking value="Solid Yellow (Black)"/>
        <marking value="Taxiway Edge Lights (Blue)"/>
      </markings>
    </object>
    <object class="WED_AirportNode" id="74" parent_id="69">
      <children/>
      <hierarchy name="unnamed entity" locked="0" hidden="0"/>
      <point latitude="11.120778840" longitude="-74.231254280" split="0" ctrl_latitude_lo="0.0" ctrl_longitude_lo="0.0" ctrl_latitude_hi="0.0" ctrl_longitude_hi="0.0"/>
      <markings>
        <marking value="Solid Yellow (Black)"/>
        <marking value="Taxiway Edge Lights (Blue)"/>
      </markings>
    </object>
    <object class="WED_ObjPlacement" id="1190" parent_id="4">
      <children/>
      <hierarchy name="peeps_drewBs_girl.obj" locked="0" hidden="0"/>
      <point latitude="11.128132527" longitude="-74.230796063" heading="154.08"/>
      <obj_placement custom_msl="0" msl="0.0" resource="CDB-Library/Peeps/beach/peeps_drewBs_girl.obj" show_level="1 Default"/>
    </object>
    <object class="WED_AirportNode" id="465" parent_id="464">
      <children/>
      <hierarchy name="unnamed entity" locked="0" hidden="0"/>
      <point latitude="11.111358200" longitude="-74.230641170" split="0" ctrl_latitude_lo="0.0" ctrl_longitude_lo="0.0" ctrl_latitude_hi="0.0" ctrl_longitude_hi="0.0"/>
      <markings>
        <marking value="Boundary Edge Lights (Red)"/>
      </markings>
    </object>
    <object class="WED_AirportNode" id="75" parent_id="69">
      <children/>
      <hierarchy name="unnamed entity" locked="0" hidden="0"/>
      <point latitude="11.120417230" longitude="-74.231329350" split="0" ctrl_latitude_lo="0.0" ctrl_longitude_lo="0.0" ctrl_latitude_hi="0.0" ctrl_longitude_hi="0.0"/>
      <markings>
        <marking value="Solid Yellow (Black)"/>
        <marking value="Taxiway Edge Lights (Blue)"/>
      </markings>
    </object>
    <object class="WED_ObjPlacement" id="2042" parent_id="4">
      <children/>
      <hierarchy name="car.obj" locked="0" hidden="0"/>
      <point latitude="11.117270085" longitude="-74.233157402" heading="-87.51"/>
      <obj_placement custom_msl="0" msl="0.0" resource="lib/cars/car.obj" show_level="1 Default"/>
    </object>
    <object class="WED_ObjPlacement" id="1535" parent_id="4">
      <children/>
      <hierarchy name="Palmtree_1.obj" locked="0" hidden="0"/>
      <point latitude="11.125472341" longitude="-74.231564595" heading="0.0"/>
      <obj_placement custom_msl="0" msl="0.0" resource="MisterX_Library/Vegetation/3D_Trees/Palmtree_1.obj" show_level="1 Default"/>
    </object>
    <object class="WED_AirportNode" id="76" parent_id="69">
      <children/>
      <hierarchy name="unnamed entity" locked="0" hidden="0"/>
      <point latitude="11.119774940" longitude="-74.231465820" split="0" ctrl_latitude_lo="0.0" ctrl_longitude_lo="0.0" ctrl_latitude_hi="0.0" ctrl_longitude_hi="0.0"/>
      <markings>
        <marking value="Solid Yellow (Black)"/>
      </markings>
    </object>
    <object class="WED_AirportNode" id="459" parent_id="454">
      <children/>
      <hierarchy name="unnamed entity" locked="0" hidden="0"/>
      <point latitude="11.118481040" longitude="-74.232407610" split="0" ctrl_latitude_lo="0.0" ctrl_longitude_lo="0.0" ctrl_latitude_hi="0.0" ctrl_longitude_hi="0.0"/>
      <markings>
        <marking value="Road Edge (Black)"/>
      </markings>
    </object>
    <object class="WED_FacadeNode" id="1020" parent_id="1013">
      <children/>
      <hierarchy name="Point" locked="0" hidden="0"/>
      <point latitude="11.117493133" longitude="-74.232479675" split="0" ctrl_latitude_lo="0.0" ctrl_longitude_lo="0.0" ctrl_latitude_hi="0.0" ctrl_longitude_hi="0.0"/>
      <facade_node wall_type="Wall 1"/>
    </object>
    <object class="WED_AirportNode" id="77" parent_id="69">
      <children/>
      <hierarchy name="unnamed entity" locked="0" hidden="0"/>
      <point latitude="11.119778460" longitude="-74.231477990" split="0" ctrl_latitude_lo="0.0" ctrl_longitude_lo="0.0" ctrl_latitude_hi="0.0" ctrl_longitude_hi="0.0"/>
      <markings>
        <marking value="Solid Yellow (Black)"/>
      </markings>
    </object>
    <object class="WED_SimpleBezierBoundaryNode" id="1529" parent_id="1528">
      <children/>
      <hierarchy name="Node 1" locked="0" hidden="0"/>
      <point latitude="11.126527673" longitude="-74.231602157" split="0" ctrl_latitude_lo="0.0" ctrl_longitude_lo="0.0" ctrl_latitude_hi="0.0" ctrl_longitude_hi="0.0"/>
    </object>
    <object class="WED_AirportNode" id="78" parent_id="69">
      <children/>
      <hierarchy name="unnamed entity" locked="0" hidden="0"/>
      <point latitude="11.119642110" longitude="-74.231512780" split="0" ctrl_latitude_lo="0.0" ctrl_longitude_lo="0.0" ctrl_latitude_hi="0.0" ctrl_longitude_hi="0.0"/>
      <markings>
        <marking value="Solid Yellow (Black)"/>
        <marking value="Taxiway Edge Lights (Blue)"/>
      </markings>
    </object>
    <object class="WED_AirportNode" id="469" parent_id="467">
      <children/>
      <hierarchy name="unnamed entity" locked="0" hidden="0"/>
      <point latitude="11.117947340" longitude="-74.232174000" split="0" ctrl_latitude_lo="0.0" ctrl_longitude_lo="0.0" ctrl_latitude_hi="0.0" ctrl_longitude_hi="0.0"/>
      <markings>
        <marking value="Road Edge (Black)"/>
      </markings>
    </object>
    <object class="WED_AirportNode" id="79" parent_id="69">
      <children/>
      <hierarchy name="unnamed entity" locked="0" hidden="0"/>
      <point latitude="11.119613100" longitude="-74.231508220" split="0" ctrl_latitude_lo="0.0" ctrl_longitude_lo="0.0" ctrl_latitude_hi="0.0" ctrl_longitude_hi="0.0"/>
      <markings>
        <marking value="Solid Yellow (Black)"/>
        <marking value="Taxiway Edge Lights (Blue)"/>
      </markings>
    </object>
    <object class="WED_SimpleBoundaryNode" id="801" parent_id="789">
      <children/>
      <hierarchy name="Point" locked="0" hidden="0"/>
      <point latitude="11.124928766" longitude="-74.229492238"/>
    </object>
    <object class="WED_AirportNode" id="80" parent_id="69">
      <children/>
      <hierarchy name="unnamed entity" locked="0" hidden="0"/>
      <point latitude="11.119589610" longitude="-74.231514530" split="0" ctrl_latitude_lo="0.000011600" ctrl_longitude_lo="0.000004730" ctrl_latitude_hi="-0.000011600" ctrl_longitude_hi="-0.000004730"/>
      <markings>
        <marking value="Solid Yellow (Black)"/>
        <marking value="Taxiway Edge Lights (Blue)"/>
      </markings>
    </object>
    <object class="WED_SimpleBezierBoundaryNode" id="1853" parent_id="1848">
      <children/>
      <hierarchy name="Node 4" locked="0" hidden="0"/>
      <point latitude="11.126346747" longitude="-74.231828496" split="0" ctrl_latitude_lo="0.0" ctrl_longitude_lo="0.0" ctrl_latitude_hi="0.0" ctrl_longitude_hi="0.0"/>
    </object>
    <object class="WED_FacadePlacement" id="1196" parent_id="4">
      <children>
        <child id="1195"/>
      </children>
      <hierarchy name="embankment_01.fac" locked="0" hidden="0"/>
      <facade_placement height="1" resource="lib/constructions/piers/embankment_01.fac" pick_walls="1" show_level="1 Default"/>
    </object>
    <object class="WED_AirportNode" id="479" parent_id="476">
      <children/>
      <hierarchy name="unnamed entity" locked="0" hidden="0"/>
      <point latitude="11.117698300" longitude="-74.232318470" split="0" ctrl_latitude_lo="0.0" ctrl_longitude_lo="0.0" ctrl_latitude_hi="0.0" ctrl_longitude_hi="0.0"/>
      <markings>
        <marking value="Road Edge (Black)"/>
      </markings>
    </object>
    <object class="WED_SimpleBoundaryNode" id="1318" parent_id="1314">
      <children/>
      <hierarchy name="Node 3" locked="0" hidden="0"/>
      <point latitude="11.117689713" longitude="-74.230782782"/>
    </object>
    <object class="WED_FacadeNode" id="960" parent_id="959">
      <children/>
      <hierarchy name="Point" locked="0" hidden="0"/>
      <point latitude="11.117522192" longitude="-74.232485024" split="0" ctrl_latitude_lo="0.0" ctrl_longitude_lo="0.0" ctrl_latitude_hi="0.0" ctrl_longitude_hi="0.0"/>
      <facade_node wall_type="Wall 1"/>
    </object>
    <object class="WED_AirportNode" id="81" parent_id="69">
      <children/>
      <hierarchy name="unnamed entity" locked="0" hidden="0"/>
      <point latitude="11.119571430" longitude="-74.231537680" split="0" ctrl_latitude_lo="0.000011600" ctrl_longitude_lo="0.000003550" ctrl_latitude_hi="-0.000011600" ctrl_longitude_hi="-0.000003550"/>
      <markings>
        <marking value="Solid Yellow (Black)"/>
        <marking value="Taxiway Edge Lights (Blue)"/>
      </markings>
    </object>
    <object class="WED_SimpleBezierBoundaryNode" id="1827" parent_id="1793">
      <children/>
      <hierarchy name="Node 33" locked="0" hidden="0"/>
      <point latitude="11.126317148" longitude="-74.231838936" split="0" ctrl_latitude_lo="0.0" ctrl_longitude_lo="0.0" ctrl_latitude_hi="0.0" ctrl_longitude_hi="0.0"/>
    </object>
    <object class="WED_AirportNode" id="82" parent_id="69">
      <children/>
      <hierarchy name="unnamed entity" locked="0" hidden="0"/>
      <point latitude="11.119490220" longitude="-74.231590360" split="0" ctrl_latitude_lo="0.0" ctrl_longitude_lo="0.0" ctrl_latitude_hi="0.0" ctrl_longitude_hi="0.0"/>
      <markings>
        <marking value="Solid Yellow (Black)"/>
      </markings>
    </object>
    <object class="WED_FacadeNode" id="1198" parent_id="1195">
      <children/>
      <hierarchy name="Node 2" locked="0" hidden="0"/>
      <point latitude="11.108167078" longitude="-74.229785371" split="0" ctrl_latitude_lo="0.0" ctrl_longitude_lo="0.0" ctrl_latitude_hi="0.0" ctrl_longitude_hi="0.0"/>
      <facade_node wall_type="Wall 1"/>
    </object>
    <object class="WED_AirportNode" id="473" parent_id="467">
      <children/>
      <hierarchy name="unnamed entity" locked="0" hidden="0"/>
      <point latitude="11.118203120" longitude="-74.232326480" split="0" ctrl_latitude_lo="0.0" ctrl_longitude_lo="0.0" ctrl_latitude_hi="0.0" ctrl_longitude_hi="0.0"/>
      <markings>
        <marking value="Road Edge (Black)"/>
      </markings>
    </object>
    <object class="WED_AirportNode" id="83" parent_id="69">
      <children/>
      <hierarchy name="unnamed entity" locked="0" hidden="0"/>
      <point latitude="11.119446770" longitude="-74.231692562" split="0" ctrl_latitude_lo="0.0" ctrl_longitude_lo="0.0" ctrl_latitude_hi="0.0" ctrl_longitude_hi="0.0"/>
      <markings/>
    </object>
    <object class="WED_SimpleBoundaryNode" id="805" parent_id="789">
      <children/>
      <hierarchy name="Point" locked="0" hidden="0"/>
      <point latitude="11.126427571" longitude="-74.229466071"/>
    </object>
    <object class="WED_AirportNode" id="84" parent_id="69">
      <children/>
      <hierarchy name="unnamed entity" locked="0" hidden="0"/>
      <point latitude="11.119981920" longitude="-74.231582610" split="0" ctrl_latitude_lo="0.0" ctrl_longitude_lo="0.0" ctrl_latitude_hi="0.0" ctrl_longitude_hi="0.0"/>
      <markings/>
    </object>
    <object class="WED_AirportChain" id="467" parent_id="9">
      <children>
        <child id="468"/>
        <child id="469"/>
        <child id="470"/>
        <child id="471"/>
        <child id="472"/>
        <child id="473"/>
        <child id="474"/>
        <child id="475"/>
      </children>
      <hierarchy name="Linear Feature 3" locked="0" hidden="0"/>
      <airport_chain closed="0"/>
    </object>
    <object class="WED_FacadePlacement" id="964" parent_id="814">
      <children>
        <child id="965"/>
      </children>
      <hierarchy name="term_bridge_01.fac" locked="0" hidden="0"/>
      <facade_placement height="10" resource="lib/airport/Modern_Airports/Terminal_kit/term_bridge_01.fac" pick_walls="1" show_level="1 Default"/>
    </object>
    <object class="WED_AirportNode" id="85" parent_id="69">
      <children/>
      <hierarchy name="unnamed entity" locked="0" hidden="0"/>
      <point latitude="11.120036300" longitude="-74.231630320" split="0" ctrl_latitude_lo="0.0" ctrl_longitude_lo="0.0" ctrl_latitude_hi="0.0" ctrl_longitude_hi="0.0"/>
      <markings/>
    </object>
    <object class="WED_AirportNode" id="86" parent_id="69">
      <children/>
      <hierarchy name="unnamed entity" locked="0" hidden="0"/>
      <point latitude="11.120105760" longitude="-74.231875990" split="0" ctrl_latitude_lo="0.0" ctrl_longitude_lo="0.0" ctrl_latitude_hi="0.0" ctrl_longitude_hi="0.0"/>
      <markings/>
    </object>
    <object class="WED_AirportNode" id="477" parent_id="476">
      <children/>
      <hierarchy name="unnamed entity" locked="0" hidden="0"/>
      <point latitude="11.117566630" longitude="-74.231938870" split="0" ctrl_latitude_lo="0.0" ctrl_longitude_lo="0.0" ctrl_latitude_hi="0.0" ctrl_longitude_hi="0.0"/>
      <markings>
        <marking value="Road Edge (Black)"/>
      </markings>
    </object>
    <object class="WED_SimpleBoundaryNode" id="1316" parent_id="1314">
      <children/>
      <hierarchy name="Node 1" locked="0" hidden="0"/>
      <point latitude="11.117678994" longitude="-74.231231144"/>
    </object>
    <object class="WED_AirportNode" id="87" parent_id="69">
      <children/>
      <hierarchy name="unnamed entity" locked="0" hidden="0"/>
      <point latitude="11.119751430" longitude="-74.232046390" split="0" ctrl_latitude_lo="0.0" ctrl_longitude_lo="0.0" ctrl_latitude_hi="0.0" ctrl_longitude_hi="0.0"/>
      <markings/>
    </object>
    <object class="WED_ObjPlacement" id="809" parent_id="808">
      <children/>
      <hierarchy name="Covered_Station.agp" locked="0" hidden="0"/>
      <point latitude="11.119863241" longitude="-74.231905491" heading="197.40"/>
      <obj_placement custom_msl="0" msl="0.0" resource="lib/airport/Common_Elements/Fueling_Stations/Covered_Station.agp" show_level="1 Default"/>
    </object>
    <object class="WED_AirportNode" id="88" parent_id="69">
      <children/>
      <hierarchy name="unnamed entity" locked="0" hidden="0"/>
      <point latitude="11.119652040" longitude="-74.232082180" split="0" ctrl_latitude_lo="0.0" ctrl_longitude_lo="0.0" ctrl_latitude_hi="0.0" ctrl_longitude_hi="0.0"/>
      <markings/>
    </object>
    <object class="WED_SimpleBoundaryNode" id="1326" parent_id="1314">
      <children/>
      <hierarchy name="Node 11" locked="0" hidden="0"/>
      <point latitude="11.117644462" longitude="-74.231505382"/>
    </object>
    <object class="WED_FacadeNode" id="968" parent_id="965">
      <children/>
      <hierarchy name="Point" locked="0" hidden="0"/>
      <point latitude="11.117126495" longitude="-74.232339573" split="0" ctrl_latitude_lo="0.0" ctrl_longitude_lo="0.0" ctrl_latitude_hi="0.0" ctrl_longitude_hi="0.0"/>
      <facade_node wall_type="Wall 1"/>
    </object>
    <object class="WED_AirportNode" id="89" parent_id="69">
      <children/>
      <hierarchy name="unnamed entity" locked="0" hidden="0"/>
      <point latitude="11.119569460" longitude="-74.231813680" split="0" ctrl_latitude_lo="0.0" ctrl_longitude_lo="0.0" ctrl_latitude_hi="0.0" ctrl_longitude_hi="0.0"/>
      <markings/>
    </object>
    <object class="WED_AirportNode" id="90" parent_id="69">
      <children/>
      <hierarchy name="unnamed entity" locked="0" hidden="0"/>
      <point latitude="11.119302220" longitude="-74.231894660" split="0" ctrl_latitude_lo="0.0" ctrl_longitude_lo="0.0" ctrl_latitude_hi="0.0" ctrl_longitude_hi="0.0"/>
      <markings/>
    </object>
    <object class="WED_AirportNode" id="91" parent_id="69">
      <children/>
      <hierarchy name="unnamed entity" locked="0" hidden="0"/>
      <point latitude="11.119167640" longitude="-74.231930840" split="0" ctrl_latitude_lo="0.0" ctrl_longitude_lo="0.0" ctrl_latitude_hi="0.0" ctrl_longitude_hi="0.0"/>
      <markings/>
    </object>
    <object class="WED_FacadePlacement" id="813" parent_id="814">
      <children>
        <child id="815"/>
      </children>
      <hierarchy name="warehouse_02_45x45.fac" locked="0" hidden="0"/>
      <facade_placement height="10" resource="lib/buildings/facades/industrial/warehouse_02_45x45.fac" pick_walls="1" show_level="1 Default"/>
    </object>
    <object class="WED_AirportNode" id="92" parent_id="69">
      <children/>
      <hierarchy name="unnamed entity" locked="0" hidden="0"/>
      <point latitude="11.119242670" longitude="-74.232203690" split="0" ctrl_latitude_lo="0.0" ctrl_longitude_lo="0.0" ctrl_latitude_hi="0.0" ctrl_longitude_hi="0.0"/>
      <markings/>
    </object>
    <object class="WED_AirportNode" id="475" parent_id="467">
      <children/>
      <hierarchy name="unnamed entity" locked="0" hidden="0"/>
      <point latitude="11.118351680" longitude="-74.231947650" split="0" ctrl_latitude_lo="0.0" ctrl_longitude_lo="0.0" ctrl_latitude_hi="0.0" ctrl_longitude_hi="0.0"/>
      <markings/>
    </object>
    <object class="WED_FacadeNode" id="972" parent_id="971">
      <children/>
      <hierarchy name="Point" locked="0" hidden="0"/>
      <point latitude="11.116811309" longitude="-74.232475851" split="0" ctrl_latitude_lo="0.0" ctrl_longitude_lo="0.0" ctrl_latitude_hi="0.0" ctrl_longitude_hi="0.0"/>
      <facade_node wall_type="Wall 1"/>
    </object>
    <object class="WED_AirportNode" id="93" parent_id="69">
      <children/>
      <hierarchy name="unnamed entity" locked="0" hidden="0"/>
      <point latitude="11.118889700" longitude="-74.232315800" split="0" ctrl_latitude_lo="0.0" ctrl_longitude_lo="0.0" ctrl_latitude_hi="0.0" ctrl_longitude_hi="0.0"/>
      <markings/>
    </object>
    <object class="WED_AirportNode" id="94" parent_id="69">
      <children/>
      <hierarchy name="unnamed entity" locked="0" hidden="0"/>
      <point latitude="11.118695270" longitude="-74.231767830" split="0" ctrl_latitude_lo="0.0" ctrl_longitude_lo="0.0" ctrl_latitude_hi="0.0" ctrl_longitude_hi="0.0"/>
      <markings/>
    </object>
    <object class="WED_SimpleBezierBoundaryNode" id="1481" parent_id="1480">
      <children/>
      <hierarchy name="Node 1" locked="0" hidden="0"/>
      <point latitude="11.127590012" longitude="-74.231293451" split="0" ctrl_latitude_lo="0.0" ctrl_longitude_lo="0.0" ctrl_latitude_hi="0.0" ctrl_longitude_hi="0.0"/>
    </object>
    <object class="WED_SimpleBoundaryNode" id="1324" parent_id="1314">
      <children/>
      <hierarchy name="Node 9" locked="0" hidden="0"/>
      <point latitude="11.119051755" longitude="-74.231416929"/>
    </object>
    <object class="WED_AirportNode" id="95" parent_id="69">
      <children/>
      <hierarchy name="unnamed entity" locked="0" hidden="0"/>
      <point latitude="11.118615850" longitude="-74.231521570" split="0" ctrl_latitude_lo="0.0" ctrl_longitude_lo="0.0" ctrl_latitude_hi="0.0" ctrl_longitude_hi="0.0"/>
      <markings>
        <marking value="Solid Yellow (Black)"/>
        <marking value="Taxiway Edge Lights (Blue)"/>
      </markings>
    </object>
    <object class="WED_AirportNode" id="96" parent_id="69">
      <children/>
      <hierarchy name="unnamed entity" locked="0" hidden="0"/>
      <point latitude="11.119048850" longitude="-74.231426250" split="0" ctrl_latitude_lo="0.0" ctrl_longitude_lo="0.0" ctrl_latitude_hi="0.0" ctrl_longitude_hi="0.0"/>
      <markings>
        <marking value="Solid Yellow (Black)"/>
        <marking value="Taxiway Edge Lights (Blue)"/>
      </markings>
    </object>
    <object class="WED_AirportNode" id="495" parent_id="494">
      <children/>
      <hierarchy name="unnamed entity" locked="0" hidden="0"/>
      <point latitude="11.116819830" longitude="-74.231926580" split="0" ctrl_latitude_lo="0.0" ctrl_longitude_lo="0.0" ctrl_latitude_hi="0.0" ctrl_longitude_hi="0.0"/>
      <markings>
        <marking value="Road Edge (Black)"/>
      </markings>
    </object>
    <object class="WED_ObjPlacement" id="912" parent_id="808">
      <children/>
      <hierarchy name="Lugg_Train_3.obj" locked="0" hidden="0"/>
      <point latitude="11.117270565" longitude="-74.232314497" heading="302.03"/>
      <obj_placement custom_msl="0" msl="0.0" resource="lib/airport/Ramp_Equipment/Lugg_Train_3.obj" show_level="1 Default"/>
    </object>
    <object class="WED_AirportNode" id="97" parent_id="69">
      <children/>
      <hierarchy name="unnamed entity" locked="0" hidden="0"/>
      <point latitude="11.119130120" longitude="-74.231338590" split="0" ctrl_latitude_lo="-0.000023190" ctrl_longitude_lo="-0.000044920" ctrl_latitude_hi="0.000023190" ctrl_longitude_hi="0.000044920"/>
      <markings>
        <marking value="Solid Yellow (Black)"/>
        <marking value="Taxiway Edge Lights (Blue)"/>
      </markings>
    </object>
    <object class="WED_AirportNode" id="98" parent_id="69">
      <children/>
      <hierarchy name="unnamed entity" locked="0" hidden="0"/>
      <point latitude="11.119153020" longitude="-74.231222340" split="0" ctrl_latitude_lo="0.0" ctrl_longitude_lo="0.0" ctrl_latitude_hi="0.0" ctrl_longitude_hi="0.0"/>
      <markings>
        <marking value="Solid Yellow (Black)"/>
        <marking value="Taxiway Edge Lights (Blue)"/>
      </markings>
    </object>
    <object class="WED_AirportNode" id="489" parent_id="485">
      <children/>
      <hierarchy name="unnamed entity" locked="0" hidden="0"/>
      <point latitude="11.117336780" longitude="-74.232387500" split="0" ctrl_latitude_lo="0.0" ctrl_longitude_lo="0.0" ctrl_latitude_hi="0.0" ctrl_longitude_hi="0.0"/>
      <markings>
        <marking value="Road Edge (Black)"/>
      </markings>
    </object>
    <object class="WED_AirportNode" id="99" parent_id="69">
      <children/>
      <hierarchy name="unnamed entity" locked="0" hidden="0"/>
      <point latitude="11.119083890" longitude="-74.230946970" split="0" ctrl_latitude_lo="0.0" ctrl_longitude_lo="0.0" ctrl_latitude_hi="0.0" ctrl_longitude_hi="0.0"/>
      <markings>
        <marking value="Solid Yellow (Black)"/>
        <marking value="Taxiway Edge Lights (Blue)"/>
      </markings>
    </object>
    <object class="WED_AirportChain" id="1938" parent_id="5">
      <children>
        <child id="1939"/>
        <child id="1940"/>
      </children>
      <hierarchy name="Linear Feature 12" locked="0" hidden="0"/>
      <airport_chain closed="0"/>
    </object>
    <object class="WED_AirportNode" id="100" parent_id="69">
      <children/>
      <hierarchy name="unnamed entity" locked="0" hidden="0"/>
      <point latitude="11.118955550" longitude="-74.230792040" split="1" ctrl_latitude_lo="0.000098630" ctrl_longitude_lo="-0.000058340" ctrl_latitude_hi="0.0" ctrl_longitude_hi="0.0"/>
      <markings>
        <marking value="Solid Yellow (Black)"/>
      </markings>
    </object>
    <object class="WED_SimpleBezierBoundaryNode" id="1431" parent_id="1416">
      <children/>
      <hierarchy name="Node 14" locked="0" hidden="0"/>
      <point latitude="11.123213144" longitude="-74.231316829" split="0" ctrl_latitude_lo="-0.000348454" ctrl_longitude_lo="-0.000047108" ctrl_latitude_hi="0.000348454" ctrl_longitude_hi="0.000047108"/>
    </object>
    <object class="WED_AirportNode" id="483" parent_id="476">
      <children/>
      <hierarchy name="unnamed entity" locked="0" hidden="0"/>
      <point latitude="11.117988740" longitude="-74.232161840" split="0" ctrl_latitude_lo="0.0" ctrl_longitude_lo="0.0" ctrl_latitude_hi="0.0" ctrl_longitude_hi="0.0"/>
      <markings>
        <marking value="Road Edge (Black)"/>
      </markings>
    </object>
    <object class="WED_ObjPlacement" id="916" parent_id="808">
      <children/>
      <hierarchy name="GPU_1.obj" locked="0" hidden="0"/>
      <point latitude="11.117097887" longitude="-74.232359749" heading="0.05"/>
      <obj_placement custom_msl="0" msl="0.0" resource="lib/airport/Ramp_Equipment/GPU_1.obj" show_level="1 Default"/>
    </object>
    <object class="WED_AirportNode" id="101" parent_id="69">
      <children/>
      <hierarchy name="unnamed entity" locked="0" hidden="0"/>
      <point latitude="11.119395740" longitude="-74.230792820" split="0" ctrl_latitude_lo="0.0" ctrl_longitude_lo="0.0" ctrl_latitude_hi="0.0" ctrl_longitude_hi="0.0"/>
      <markings>
        <marking value="Solid Yellow (Black)"/>
      </markings>
    </object>
    <object class="WED_AirportNode" id="102" parent_id="69">
      <children/>
      <hierarchy name="unnamed entity" locked="0" hidden="0"/>
      <point latitude="11.119272470" longitude="-74.230908380" split="0" ctrl_latitude_lo="0.000020880" ctrl_longitude_lo="0.000036650" ctrl_latitude_hi="-0.000020880" ctrl_longitude_hi="-0.000036650"/>
      <markings>
        <marking value="Solid Yellow (Black)"/>
        <marking value="Taxiway Edge Lights (Blue)"/>
      </markings>
    </object>
    <object class="WED_SimpleBezierBoundaryNode" id="1425" parent_id="1416">
      <children/>
      <hierarchy name="Node 8" locked="0" hidden="0"/>
      <point latitude="11.124706517" longitude="-74.231389304" split="0" ctrl_latitude_lo="0.0" ctrl_longitude_lo="0.0" ctrl_latitude_hi="0.0" ctrl_longitude_hi="0.0"/>
    </object>
    <object class="WED_AirportNode" id="493" parent_id="485">
      <children/>
      <hierarchy name="unnamed entity" locked="0" hidden="0"/>
      <point latitude="11.117610700" longitude="-74.231939590" split="0" ctrl_latitude_lo="0.0" ctrl_longitude_lo="0.0" ctrl_latitude_hi="0.0" ctrl_longitude_hi="0.0"/>
      <markings/>
    </object>
    <object class="WED_AirportNode" id="103" parent_id="69">
      <children/>
      <hierarchy name="unnamed entity" locked="0" hidden="0"/>
      <point latitude="11.119248150" longitude="-74.231004350" split="0" ctrl_latitude_lo="0.0" ctrl_longitude_lo="0.0" ctrl_latitude_hi="0.0" ctrl_longitude_hi="0.0"/>
      <markings>
        <marking value="Solid Yellow (Black)"/>
        <marking value="Taxiway Edge Lights (Blue)"/>
      </markings>
    </object>
    <object class="WED_AirportNode" id="104" parent_id="69">
      <children/>
      <hierarchy name="unnamed entity" locked="0" hidden="0"/>
      <point latitude="11.119309320" longitude="-74.231228180" split="0" ctrl_latitude_lo="-0.000023200" ctrl_longitude_lo="0.000040190" ctrl_latitude_hi="0.000023200" ctrl_longitude_hi="-0.000040190"/>
      <markings>
        <marking value="Solid Yellow (Black)"/>
        <marking value="Taxiway Edge Lights (Blue)"/>
      </markings>
    </object>
    <object class="WED_AirportChain" id="503" parent_id="9">
      <children>
        <child id="504"/>
        <child id="505"/>
        <child id="506"/>
        <child id="507"/>
        <child id="508"/>
        <child id="509"/>
        <child id="510"/>
        <child id="511"/>
        <child id="512"/>
        <child id="513"/>
        <child id="514"/>
      </children>
      <hierarchy name="Linear Feature 2" locked="0" hidden="0"/>
      <airport_chain closed="0"/>
    </object>
    <object class="WED_FacadeNode" id="1092" parent_id="1071">
      <children/>
      <hierarchy name="Point" locked="0" hidden="0"/>
      <point latitude="11.127958414" longitude="-74.230500203" split="0" ctrl_latitude_lo="0.0" ctrl_longitude_lo="0.0" ctrl_latitude_hi="0.0" ctrl_longitude_hi="0.0"/>
      <facade_node wall_type="Wall 1"/>
    </object>
    <object class="WED_ObjPlacement" id="920" parent_id="808">
      <children/>
      <hierarchy name="GPU_1.obj" locked="0" hidden="0"/>
      <point latitude="11.118600012" longitude="-74.232332788" heading="292.73"/>
      <obj_placement custom_msl="0" msl="0.0" resource="lib/airport/Ramp_Equipment/GPU_1.obj" show_level="1 Default"/>
    </object>
    <object class="WED_AirportNode" id="105" parent_id="69">
      <children/>
      <hierarchy name="unnamed entity" locked="0" hidden="0"/>
      <point latitude="11.119463940" longitude="-74.231339160" split="0" ctrl_latitude_lo="0.0" ctrl_longitude_lo="0.0" ctrl_latitude_hi="0.0" ctrl_longitude_hi="0.0"/>
      <markings>
        <marking value="Solid Yellow (Black)"/>
        <marking value="Taxiway Edge Lights (Blue)"/>
      </markings>
    </object>
    <object class="WED_AirportNode" id="106" parent_id="69">
      <children/>
      <hierarchy name="unnamed entity" locked="0" hidden="0"/>
      <point latitude="11.119957180" longitude="-74.231240280" split="0" ctrl_latitude_lo="0.0" ctrl_longitude_lo="0.0" ctrl_latitude_hi="0.0" ctrl_longitude_hi="0.0"/>
      <markings>
        <marking value="Solid Yellow (Black)"/>
        <marking value="Taxiway Edge Lights (Blue)"/>
      </markings>
    </object>
    <object class="WED_AirportNode" id="497" parent_id="494">
      <children/>
      <hierarchy name="unnamed entity" locked="0" hidden="0"/>
      <point latitude="11.116957650" longitude="-74.232266990" split="0" ctrl_latitude_lo="0.0" ctrl_longitude_lo="0.0" ctrl_latitude_hi="0.0" ctrl_longitude_hi="0.0"/>
      <markings>
        <marking value="Road Edge (Black)"/>
      </markings>
    </object>
    <object class="WED_FacadeNode" id="1094" parent_id="1071">
      <children/>
      <hierarchy name="Point" locked="0" hidden="0"/>
      <point latitude="11.127915984" longitude="-74.230840603" split="0" ctrl_latitude_lo="0.0" ctrl_longitude_lo="0.0" ctrl_latitude_hi="0.0" ctrl_longitude_hi="0.0"/>
      <facade_node wall_type="Wall 1"/>
    </object>
    <object class="WED_AirportNode" id="107" parent_id="69">
      <children/>
      <hierarchy name="unnamed entity" locked="0" hidden="0"/>
      <point latitude="11.120831470" longitude="-74.231068930" split="0" ctrl_latitude_lo="0.0" ctrl_longitude_lo="0.0" ctrl_latitude_hi="0.0" ctrl_longitude_hi="0.0"/>
      <markings>
        <marking value="Solid Yellow (Black)"/>
        <marking value="Taxiway Edge Lights (Blue)"/>
      </markings>
    </object>
    <object class="WED_AirportNode" id="108" parent_id="69">
      <children/>
      <hierarchy name="unnamed entity" locked="0" hidden="0"/>
